[
  {
    "category": "railway",
    "image": "https://commons.wikimedia.org/w/thumb.php?width=500&f=Rostokino st.jpg",
    "latitude": 55.841034,
    "longitude": 37.6698487,
    "name_en": null,
    "name_ru": "Ростокино",
    "opening_hours": null,
    "osm_id": 60725048,
    "osm_type": "node",
    "phone": null,
    "website": null,
    "wikidata": "Q4398555",
    "wikipedia": "ru:Ростокино (платформа, Ярославское направление МЖД)"
  },
  {
    "category": "theatre",
    "image": "https://commons.wikimedia.org/w/thumb.php?width=500&f=Theatre Durov.JPG",
    "latitude": 55.7793267,
    "longitude": 37.6212104,
    "name_en": null,
    "name_ru": "Уголок дедушки Дурова",
    "opening_hours": "We-Fr 11:15-14:45; Sa-Su 11:00-19:45",
    "osm_id": 101118823,
    "osm_type": "node",
    "phone": "+7 499 3919294",
    "website": null,
    "wikidata": "Q4453469",
    "wikipedia": "ru:Театр зверей имени Дурова"
  },
  {
    "category": "railway",
    "image": "https://commons.wikimedia.org/w/thumb.php?width=500&f=Moscow Kazansky railway station asv2019-06.jpg",
    "latitude": 55.7742475,
    "longitude": 37.659914,
    "name_en": "Kazan Passenger Moscow",
    "name_ru": "Москва-Пассажирская-Казанская",
    "opening_hours": null,
    "osm_id": 85698866,
    "osm_type": "node",
    "phone": null,
    "website": null,
    "wikidata": "Q1432585",
    "wikipedia": "ru:Казанский вокзал"
  },
  {
    "category": "railway",
    "image": "https://commons.wikimedia.org/w/thumb.php?width=500&f=CPPK EP2D-0024 RZD Kalanchevskaya 2020-03.jpg",
    "latitude": 55.7756705,
    "longitude": 37.6518147,
    "name_en": "Kalanchyovskaya",
    "name_ru": "Каланчёвская",
    "opening_hours": null,
    "osm_id": 61088516,
    "osm_type": "node",
    "phone": null,
    "website": null,
    "wikidata": "Q800977",
    "wikipedia": "ru:Москва-Каланчёвская"
  },
  {
    "category": "area",
    "image": "https://commons.wikimedia.org/w/thumb.php?width=500&f=Panorama of North Butovo.jpg",
    "latitude": 55.5714094,
    "longitude": 37.5776237,
    "name_en": "Severnoye Butovo",
    "name_ru": "Северное Бутово",
    "opening_hours": null,
    "osm_id": 82794758,
    "osm_type": "node",
    "phone": null,
    "website": null,
    "wikidata": "Q1963171",
    "wikipedia": "ru:Северное Бутово"
  },
  {
    "category": "railway",
    "image": "https://commons.wikimedia.org/w/thumb.php?width=500&f=Kurskvokzal.jpg",
    "latitude": 55.7577737,
    "longitude": 37.6621837,
    "name_en": "Moscow Kursky railway station",
    "name_ru": "Москва-Пассажирская-Курская",
    "opening_hours": null,
    "osm_id": 61088523,
    "osm_type": "node",
    "phone": null,
    "website": null,
    "wikidata": "Q577854",
    "wikipedia": "en:Moscow Kursky railway station"
  },
  {
    "category": "railway",
    "image": "https://commons.wikimedia.org/w/thumb.php?width=500&f=Cherkizovo station 11-2016.jpg",
    "latitude": 55.8030155,
    "longitude": 37.7466848,
    "name_en": null,
    "name_ru": "Черкизово",
    "opening_hours": null,
    "osm_id": 54626031,
    "osm_type": "node",
    "phone": null,
    "website": null,
    "wikidata": "Q26849010",
    "wikipedia": "ru:Черкизово (станция)"
  },
  {
    "category": "railway",
    "image": "https://commons.wikimedia.org/w/thumb.php?width=500&f=Partizanskaya-mm.jpg",
    "latitude": 55.7885035,
    "longitude": 37.7509977,
    "name_en": "Partizanskaya",
    "name_ru": "Партизанская",
    "opening_hours": null,
    "osm_id": 68916801,
    "osm_type": "node",
    "phone": null,
    "website": null,
    "wikidata": "Q2054979",
    "wikipedia": "ru:Партизанская (станция метро, Москва)"
  },
  {
    "category": "railway",
    "image": "https://commons.wikimedia.org/w/thumb.php?width=500&f=Moscow Riga Railway Terminal 2011.JPG",
    "latitude": 55.7932703,
    "longitude": 37.6321318,
    "name_en": "Moscow Rizhsky railway station",
    "name_ru": "Москва-Рижская",
    "opening_hours": null,
    "osm_id": 146573247,
    "osm_type": "node",
    "phone": null,
    "website": null,
    "wikidata": "Q1473982",
    "wikipedia": "en:Moscow Rizhsky railway station"
  },
  {
    "category": "railway",
    "image": "https://commons.wikimedia.org/w/thumb.php?width=500&f=Moscow Elektrozavodskaya metro station asv2018-09.jpg",
    "latitude": 55.7817167,
    "longitude": 37.7038005,
    "name_en": "Elektrozavodskaya",
    "name_ru": "Электрозаводская",
    "opening_hours": null,
    "osm_id": 242546355,
    "osm_type": "node",
    "phone": null,
    "website": null,
    "wikidata": "Q1327563",
    "wikipedia": "ru:Электрозаводская (станция метро, Арбатско-Покровская линия)"
  },
  {
    "category": "railway",
    "image": "https://commons.wikimedia.org/w/thumb.php?width=500&f=Metro MSK Line3 Baumanskaya.jpg",
    "latitude": 55.7730392,
    "longitude": 37.6805494,
    "name_en": "Baumanskaya",
    "name_ru": "Бауманская",
    "opening_hours": null,
    "osm_id": 242546356,
    "osm_type": "node",
    "phone": null,
    "website": null,
    "wikidata": "Q980794",
    "wikipedia": "ru:Бауманская (станция метро)"
  },
  {
    "category": "railway",
    "image": "https://commons.wikimedia.org/w/thumb.php?width=500&f=Degunino railplatform Moscow.JPG",
    "latitude": 55.8659062,
    "longitude": 37.5729987,
    "name_en": "Degunino",
    "name_ru": "Дегунино",
    "opening_hours": null,
    "osm_id": 143427820,
    "osm_type": "node",
    "phone": null,
    "website": null,
    "wikidata": "Q4156659",
    "wikipedia": "ru:Дегунино (платформа)"
  },
  {
    "category": "railway",
    "image": "https://commons.wikimedia.org/w/thumb.php?width=500&f=Станция Кожухово.jpg",
    "latitude": 55.699905,
    "longitude": 37.6512864,
    "name_en": null,
    "name_ru": "Кожухово",
    "opening_hours": null,
    "osm_id": 220196839,
    "osm_type": "node",
    "phone": null,
    "website": null,
    "wikidata": "Q4226434",
    "wikipedia": "ru:Кожухово (станция)"
  },
  {
    "category": "railway",
    "image": "https://commons.wikimedia.org/w/thumb.php?width=500&f=Платформа Москворечье, путь в сторону Подольска, 2015.JPG",
    "latitude": 55.6412776,
    "longitude": 37.6900672,
    "name_en": "Moskvorechye",
    "name_ru": "Москворечье",
    "opening_hours": null,
    "osm_id": 136880164,
    "osm_type": "node",
    "phone": null,
    "website": null,
    "wikidata": "Q4303820",
    "wikipedia": "ru:Москворечье (платформа)"
  },
  {
    "category": "railway",
    "image": "https://commons.wikimedia.org/w/thumb.php?width=500&f=Ugreshskaya station 1.jpg",
    "latitude": 55.7154769,
    "longitude": 37.6874448,
    "name_en": null,
    "name_ru": "Угрешская",
    "opening_hours": null,
    "osm_id": 220203803,
    "osm_type": "node",
    "phone": null,
    "website": null,
    "wikidata": "Q4469153",
    "wikipedia": "ru:Угрешская (станция)"
  },
  {
    "category": "railway",
    "image": "https://commons.wikimedia.org/w/thumb.php?width=500&f=MosMetro Studencheskaya asv2018-01.jpg",
    "latitude": 55.7388247,
    "longitude": 37.5483914,
    "name_en": "Studencheskaya",
    "name_ru": "Студенческая",
    "opening_hours": null,
    "osm_id": 241158415,
    "osm_type": "node",
    "phone": null,
    "website": null,
    "wikidata": "Q2721245",
    "wikipedia": "ru:Студенческая (станция метро, Москва)"
  },
  {
    "category": "railway",
    "image": "https://commons.wikimedia.org/w/thumb.php?width=500&f=Metro MSK Line3 Arbatskaya (img1).jpg",
    "latitude": 55.752095,
    "longitude": 37.6069779,
    "name_en": "Arbatskaya",
    "name_ru": "Арбатская",
    "opening_hours": null,
    "osm_id": 242546476,
    "osm_type": "node",
    "phone": null,
    "website": null,
    "wikidata": "Q2604365",
    "wikipedia": "ru:Арбатская (станция метро, Арбатско-Покровская линия)"
  },
  {
    "category": "railway",
    "image": "https://commons.wikimedia.org/w/thumb.php?width=500&f=Ploshchad revolyutsii Metro 2010.jpg",
    "latitude": 55.7566536,
    "longitude": 37.6218637,
    "name_en": "Revolution Square",
    "name_ru": "Площадь Революции",
    "opening_hours": null,
    "osm_id": 242546475,
    "osm_type": "node",
    "phone": null,
    "website": null,
    "wikidata": "Q2721257",
    "wikipedia": "ru:Площадь Революции (станция метро, Москва)"
  },
  {
    "category": "monument",
    "image": "https://commons.wikimedia.org/w/thumb.php?width=500&f=Monument to the Conquerors of Space, Moscow, Russia.jpg",
    "latitude": 55.8226731,
    "longitude": 37.6397567,
    "name_en": "Monument to the Conquerors of Space",
    "name_ru": "Покорителям космоса",
    "opening_hours": null,
    "osm_id": 250525422,
    "osm_type": "node",
    "phone": null,
    "website": null,
    "wikidata": "Q2299609",
    "wikipedia": "ru:Покорителям космоса"
  },
  {
    "category": "railway",
    "image": "https://commons.wikimedia.org/w/thumb.php?width=500&f=Metro MSK Line3 Smolenskaya.jpg",
    "latitude": 55.747394,
    "longitude": 37.5818245,
    "name_en": "Smolenskaya",
    "name_ru": "Смоленская",
    "opening_hours": null,
    "osm_id": 252828224,
    "osm_type": "node",
    "phone": null,
    "website": null,
    "wikidata": "Q935808",
    "wikipedia": "ru:Смоленская (станция метро, Арбатско-Покровская линия)"
  },
  {
    "category": "railway",
    "image": "https://commons.wikimedia.org/w/thumb.php?width=500&f=TaganskayaTKL-mm.jpg",
    "latitude": 55.740465,
    "longitude": 37.6518996,
    "name_en": "Taganskaya",
    "name_ru": "Таганская",
    "opening_hours": null,
    "osm_id": 253016890,
    "osm_type": "node",
    "phone": null,
    "website": null,
    "wikidata": "Q3028818",
    "wikipedia": "ru:Таганская (станция метро, Таганско-Краснопресненская линия)"
  },
  {
    "category": "railway",
    "image": "https://commons.wikimedia.org/w/thumb.php?width=500&f=Moscow South river terminal2008.jpg",
    "latitude": 55.6893577,
    "longitude": 37.6757689,
    "name_en": "Southern River Station",
    "name_ru": "Южный речной вокзал",
    "opening_hours": null,
    "osm_id": 249719606,
    "osm_type": "node",
    "phone": null,
    "website": null,
    "wikidata": "Q4534176",
    "wikipedia": "ru:Южный речной вокзал"
  },
  {
    "category": "monument",
    "image": "https://commons.wikimedia.org/w/thumb.php?width=500&f=USSR, 1966 (34).jpg",
    "latitude": 55.7618096,
    "longitude": 37.6101609,
    "name_en": "Jury Dolgoruky",
    "name_ru": "Юрию Долгорукому",
    "opening_hours": null,
    "osm_id": 253124200,
    "osm_type": "node",
    "phone": null,
    "website": null,
    "wikidata": "Q4343424",
    "wikipedia": "ru:Памятник Юрию Долгорукому"
  },
  {
    "category": "railway",
    "image": "https://commons.wikimedia.org/w/thumb.php?width=500&f=Shosseentuz-mm.jpg",
    "latitude": 55.7575692,
    "longitude": 37.7492941,
    "name_en": "Shosse Entuziastov",
    "name_ru": "Шоссе Энтузиастов",
    "opening_hours": null,
    "osm_id": 255744578,
    "osm_type": "node",
    "phone": null,
    "website": null,
    "wikidata": "Q2551495",
    "wikipedia": "ru:Шоссе Энтузиастов (станция метро)"
  },
  {
    "category": "area",
    "image": null,
    "latitude": 55.742273,
    "longitude": 37.8656486,
    "name_en": "Novokosino",
    "name_ru": "Новокосино",
    "opening_hours": null,
    "osm_id": 253849602,
    "osm_type": "node",
    "phone": null,
    "website": null,
    "wikidata": "Q2366748",
    "wikipedia": "ru:Новокосино (район Москвы)"
  },
  {
    "category": "area",
    "image": "https://commons.wikimedia.org/w/thumb.php?width=500&f=Ukhtomskaya-station.jpg",
    "latitude": 55.701557,
    "longitude": 37.874504,
    "name_en": null,
    "name_ru": "посёлок Ухтомского",
    "opening_hours": null,
    "osm_id": 253849604,
    "osm_type": "node",
    "phone": null,
    "website": null,
    "wikidata": "Q4479231",
    "wikipedia": "ru:Ухтомская (платформа)"
  },
  {
    "category": "railway",
    "image": "https://commons.wikimedia.org/w/thumb.php?width=500&f=MCC 01-2017 img09 Kutuzovskaya station.jpg",
    "latitude": 55.7399367,
    "longitude": 37.5341278,
    "name_en": "Kutuzovskaya",
    "name_ru": "Кутузовская",
    "opening_hours": null,
    "osm_id": 253745256,
    "osm_type": "node",
    "phone": null,
    "website": null,
    "wikidata": "Q4249639",
    "wikipedia": "ru:Кутузовская (платформа, МКЖД)"
  },
  {
    "category": "museum",
    "image": "https://commons.wikimedia.org/w/thumb.php?width=500&f=\"ВВЦ - павильон № 13 Здоровье\".jpg",
    "latitude": 55.7466351,
    "longitude": 37.6032972,
    "name_en": "Roerich Museum",
    "name_ru": "Музей Рерихов",
    "opening_hours": "Tu,Fr-Su 11:00-20:00; We-Th 12:00-21:00",
    "osm_id": 253038783,
    "osm_type": "node",
    "phone": "+7 499 5843508",
    "website": "http://roerichsmuseum.ru/",
    "wikidata": "Q48953495",
    "wikipedia": "ru:Музей Рерихов"
  },
  {
    "category": "monument",
    "image": null,
    "latitude": 55.7452819,
    "longitude": 37.5476932,
    "name_en": null,
    "name_ru": "П. И. Багратиону",
    "opening_hours": null,
    "osm_id": 253221694,
    "osm_type": "node",
    "phone": null,
    "website": null,
    "wikidata": "Q4343082",
    "wikipedia": "ru:Памятник Багратиону (Москва)"
  },
  {
    "category": "monument",
    "image": "https://commons.wikimedia.org/w/thumb.php?width=500&f=“March of a Million” rally (7004753758).jpg",
    "latitude": 55.7294142,
    "longitude": 37.6132621,
    "name_en": "Vladimir Lenin",
    "name_ru": "В. И. Ленину",
    "opening_hours": null,
    "osm_id": 257089557,
    "osm_type": "node",
    "phone": null,
    "website": null,
    "wikidata": "Q53328356",
    "wikipedia": "ru:Памятник Ленину на Калужской площади"
  },
  {
    "category": "railway",
    "image": "https://commons.wikimedia.org/w/thumb.php?width=500&f=Вестибюль-2.JPG",
    "latitude": 55.7963698,
    "longitude": 37.7153466,
    "name_en": "Preobrazhenskaya Ploshchad",
    "name_ru": "Преображенская площадь",
    "opening_hours": null,
    "osm_id": 265949958,
    "osm_type": "node",
    "phone": null,
    "website": null,
    "wikidata": "Q1190916",
    "wikipedia": "ru:Преображенская площадь (станция метро)"
  },
  {
    "category": "railway",
    "image": "https://commons.wikimedia.org/w/thumb.php?width=500&f=Likhobory.jpg",
    "latitude": 55.842712,
    "longitude": 37.5304764,
    "name_en": null,
    "name_ru": "Лихоборы",
    "opening_hours": null,
    "osm_id": 266426836,
    "osm_type": "node",
    "phone": null,
    "website": null,
    "wikidata": "Q4264205",
    "wikipedia": "ru:Лихоборы (станция)"
  },
  {
    "category": "railway",
    "image": "https://commons.wikimedia.org/w/thumb.php?width=500&f=Grazhdanskaya railplatform 02.jpg",
    "latitude": 55.8055538,
    "longitude": 37.5532288,
    "name_en": "Grazhdanskaya",
    "name_ru": "Гражданская",
    "opening_hours": null,
    "osm_id": 266429650,
    "osm_type": "node",
    "phone": null,
    "website": null,
    "wikidata": "Q14927375",
    "wikipedia": "ru:Гражданская (платформа)"
  },
  {
    "category": "railway",
    "image": "https://commons.wikimedia.org/w/thumb.php?width=500&f=Pion 07.jpg",
    "latitude": 55.7359875,
    "longitude": 37.4671358,
    "name_en": "Pionerskaya",
    "name_ru": "Пионерская",
    "opening_hours": null,
    "osm_id": 244036856,
    "osm_type": "node",
    "phone": null,
    "website": null,
    "wikidata": "Q2721123",
    "wikipedia": "ru:Пионерская (станция метро, Москва)"
  },
  {
    "category": "building",
    "image": "https://commons.wikimedia.org/w/thumb.php?width=500&f=00 4680 Moskau - Kotelnicheskaya Embankment.jpg",
    "latitude": 55.7470836,
    "longitude": 37.6426543,
    "name_en": "Kotelnicheskaya Embankment Building",
    "name_ru": "Жилой дом на Котельнической набережной",
    "opening_hours": null,
    "osm_id": 266720662,
    "osm_type": "node",
    "phone": null,
    "website": null,
    "wikidata": "Q2022067",
    "wikipedia": "ru:Жилой дом на Котельнической набережной"
  },
  {
    "category": "area",
    "image": "https://commons.wikimedia.org/w/thumb.php?width=500&f=Храм Влахернской иконы Божией Матери.jpg",
    "latitude": 55.6937767,
    "longitude": 37.850983,
    "name_en": "Zhulebino",
    "name_ru": "Жулебино",
    "opening_hours": null,
    "osm_id": 267556569,
    "osm_type": "node",
    "phone": null,
    "website": null,
    "wikidata": "Q533860",
    "wikipedia": "ru:Жулебино (деревня)"
  },
  {
    "category": "museum",
    "image": "https://commons.wikimedia.org/w/thumb.php?width=500&f=Museum of private collections GMII (2010s) by shakko 01.jpg",
    "latitude": 55.7473762,
    "longitude": 37.6071231,
    "name_en": "Museum of Private Collections",
    "name_ru": "Отдел личных коллекций",
    "opening_hours": "We-Su 12:00-20:00; Th 12:00-21:00",
    "osm_id": 273354709,
    "osm_type": "node",
    "phone": "+7 495 6971610",
    "website": "http://www.artprivatecollections.ru",
    "wikidata": "Q4306373",
    "wikipedia": "ru:Музей личных коллекций"
  },
  {
    "category": "museum",
    "image": "https://commons.wikimedia.org/w/thumb.php?width=500&f=Pushkin museum - 19th and 20th Century European and American Art - building 02 by shakko.jpg",
    "latitude": 55.7464881,
    "longitude": 37.6053051,
    "name_en": "Gallery of European and American Art",
    "name_ru": "Галерея искусства Европы и Америки",
    "opening_hours": null,
    "osm_id": 273354762,
    "osm_type": "node",
    "phone": null,
    "website": null,
    "wikidata": "Q21637701",
    "wikipedia": "ru:Галерея искусства стран Европы и Америки XIX—XX веков"
  },
  {
    "category": "railway",
    "image": "https://commons.wikimedia.org/w/thumb.php?width=500&f=Авиамоторная 02.jpg",
    "latitude": 55.7525349,
    "longitude": 37.7200631,
    "name_en": "Aviamotornaya",
    "name_ru": "Авиамоторная",
    "opening_hours": null,
    "osm_id": 276191013,
    "osm_type": "node",
    "phone": null,
    "website": null,
    "wikidata": "Q2551485",
    "wikipedia": "ru:Авиамоторная (станция метро)"
  },
  {
    "category": "railway",
    "image": "https://commons.wikimedia.org/w/thumb.php?width=500&f=Marksistskaya (Марксистская) (5056305411).jpg",
    "latitude": 55.7413164,
    "longitude": 37.6535345,
    "name_en": "Marksistskaya",
    "name_ru": "Марксистская",
    "opening_hours": null,
    "osm_id": 276191577,
    "osm_type": "node",
    "phone": null,
    "website": null,
    "wikidata": "Q2603956",
    "wikipedia": "ru:Марксистская (станция метро)"
  },
  {
    "category": "railway",
    "image": "https://commons.wikimedia.org/w/thumb.php?width=500&f=Yasenevo 05.jpg",
    "latitude": 55.6063247,
    "longitude": 37.5334202,
    "name_en": "Yasenevo",
    "name_ru": "Ясенево",
    "opening_hours": null,
    "osm_id": 264162888,
    "osm_type": "node",
    "phone": null,
    "website": null,
    "wikidata": "Q2517156",
    "wikipedia": "ru:Ясенево (станция метро)"
  },
  {
    "category": "railway",
    "image": "https://commons.wikimedia.org/w/thumb.php?width=500&f=Podbelskogo-mm.jpg",
    "latitude": 55.8147191,
    "longitude": 37.7342169,
    "name_en": "Bul'var Rokossovskogo",
    "name_ru": "Бульвар Рокоссовского",
    "opening_hours": null,
    "osm_id": 265949954,
    "osm_type": "node",
    "phone": null,
    "website": null,
    "wikidata": "Q1139323",
    "wikipedia": "ru:Бульвар Рокоссовского (станция метро)"
  },
  {
    "category": "railway",
    "image": "https://commons.wikimedia.org/w/thumb.php?width=500&f=Botsad-mm.jpg",
    "latitude": 55.8448908,
    "longitude": 37.6382812,
    "name_en": "Botanical Garden",
    "name_ru": "Ботанический сад",
    "opening_hours": null,
    "osm_id": 268521591,
    "osm_type": "node",
    "phone": null,
    "website": null,
    "wikidata": "Q2603041",
    "wikipedia": "ru:Ботанический сад (станция метро, Москва)"
  },
  {
    "category": "railway",
    "image": "https://commons.wikimedia.org/w/thumb.php?width=500&f=Рижская 10.jpg",
    "latitude": 55.7936866,
    "longitude": 37.6364908,
    "name_en": "Rizhskaya",
    "name_ru": "Рижская",
    "opening_hours": null,
    "osm_id": 277499099,
    "osm_type": "node",
    "phone": null,
    "website": null,
    "wikidata": "Q2602986",
    "wikipedia": "ru:Рижская (станция метро, Калужско-Рижская линия)"
  },
  {
    "category": "railway",
    "image": "https://commons.wikimedia.org/w/thumb.php?width=500&f=Shabol Antares 07.jpg",
    "latitude": 55.7201511,
    "longitude": 37.6079178,
    "name_en": "Shabolovskaya",
    "name_ru": "Шаболовская",
    "opening_hours": null,
    "osm_id": 277499854,
    "osm_type": "node",
    "phone": null,
    "website": null,
    "wikidata": "Q641953",
    "wikipedia": "ru:Шаболовская (станция метро)"
  },
  {
    "category": "railway",
    "image": "https://commons.wikimedia.org/w/thumb.php?width=500&f=Moscow Kropotkinskaya vestibule 07-2016.jpg",
    "latitude": 55.7454302,
    "longitude": 37.603807,
    "name_en": "Kropotkinskaya",
    "name_ru": "Кропоткинская",
    "opening_hours": null,
    "osm_id": 278692957,
    "osm_type": "node",
    "phone": null,
    "website": null,
    "wikidata": "Q1341676",
    "wikipedia": "ru:Кропоткинская (станция метро)"
  },
  {
    "category": "railway",
    "image": "https://commons.wikimedia.org/w/thumb.php?width=500&f=Metro MSK Line1 Sportivnaya (img1).jpg",
    "latitude": 55.7233833,
    "longitude": 37.5642133,
    "name_en": "Sportivnaya",
    "name_ru": "Спортивная",
    "opening_hours": null,
    "osm_id": 278693055,
    "osm_type": "node",
    "phone": null,
    "website": null,
    "wikidata": "Q1341317",
    "wikipedia": "ru:Спортивная (станция метро, Москва)"
  },
  {
    "category": "railway",
    "image": "https://commons.wikimedia.org/w/thumb.php?width=500&f=MosMetro Frunzenskaya 01-2017.jpg",
    "latitude": 55.7269062,
    "longitude": 37.5785665,
    "name_en": "Frunzenskaya",
    "name_ru": "Фрунзенская",
    "opening_hours": null,
    "osm_id": 278693056,
    "osm_type": "node",
    "phone": null,
    "website": null,
    "wikidata": "Q1341734",
    "wikipedia": "ru:Фрунзенская (станция метро, Москва)"
  },
  {
    "category": "railway",
    "image": "https://commons.wikimedia.org/w/thumb.php?width=500&f=Metro MSK Line5 Park Kultury.jpg",
    "latitude": 55.735811,
    "longitude": 37.5913019,
    "name_en": "Park Kultury",
    "name_ru": "Парк Культуры",
    "opening_hours": null,
    "osm_id": 291686079,
    "osm_type": "node",
    "phone": null,
    "website": null,
    "wikidata": "Q1340440",
    "wikipedia": "ru:Парк культуры (станция метро, Кольцевая линия)"
  },
  {
    "category": "railway",
    "image": "https://commons.wikimedia.org/w/thumb.php?width=500&f=Metro MSK Line2 Novokuznetskaya.jpg",
    "latitude": 55.7414344,
    "longitude": 37.6292018,
    "name_en": "Novokuznetskaya",
    "name_ru": "Новокузнецкая",
    "opening_hours": null,
    "osm_id": 292143796,
    "osm_type": "node",
    "phone": null,
    "website": null,
    "wikidata": "Q1365632",
    "wikipedia": "ru:Новокузнецкая (станция метро)"
  },
  {
    "category": "railway",
    "image": "https://commons.wikimedia.org/w/thumb.php?width=500&f=MosMetro Teatralnaya img3 asv2018-01.jpg",
    "latitude": 55.7575071,
    "longitude": 37.6191912,
    "name_en": "Teatralnaya",
    "name_ru": "Театральная",
    "opening_hours": null,
    "osm_id": 292143794,
    "osm_type": "node",
    "phone": null,
    "website": null,
    "wikidata": "Q1200403",
    "wikipedia": "ru:Театральная (станция метро, Москва)"
  },
  {
    "category": "railway",
    "image": "https://commons.wikimedia.org/w/thumb.php?width=500&f=Tekhnopark station - platform and train.jpg",
    "latitude": 55.6936232,
    "longitude": 37.6644353,
    "name_en": null,
    "name_ru": "Технопарк",
    "opening_hours": null,
    "osm_id": 292148161,
    "osm_type": "node",
    "phone": null,
    "website": null,
    "wikidata": "Q2384688",
    "wikipedia": "ru:Технопарк (станция метро)"
  },
  {
    "category": "railway",
    "image": "https://commons.wikimedia.org/w/thumb.php?width=500&f=Metro MSK Line1 Sokolniki.jpg",
    "latitude": 55.7888112,
    "longitude": 37.6802722,
    "name_en": "Sokolniki",
    "name_ru": "Сокольники",
    "opening_hours": null,
    "osm_id": 267334996,
    "osm_type": "node",
    "phone": null,
    "website": null,
    "wikidata": "Q1190787",
    "wikipedia": "ru:Сокольники (станция метро, Сокольническая линия)"
  },
  {
    "category": "railway",
    "image": "https://commons.wikimedia.org/w/thumb.php?width=500&f=Moscow Metro SmolenskayaFL asv2018-09.jpg",
    "latitude": 55.7488081,
    "longitude": 37.5827207,
    "name_en": "Smolenskaya",
    "name_ru": "Смоленская",
    "opening_hours": null,
    "osm_id": 291687197,
    "osm_type": "node",
    "phone": null,
    "website": null,
    "wikidata": "Q2547903",
    "wikipedia": "ru:Смоленская (станция метро, Филёвская линия)"
  },
  {
    "category": "railway",
    "image": "https://commons.wikimedia.org/w/thumb.php?width=500&f=Tretyakovskaya North 2010.jpg",
    "latitude": 55.7409166,
    "longitude": 37.6273436,
    "name_en": "Tretyakovskaya",
    "name_ru": "Третьяковская",
    "opening_hours": null,
    "osm_id": 277499852,
    "osm_type": "node",
    "phone": null,
    "website": null,
    "wikidata": "Q1734852",
    "wikipedia": "ru:Третьяковская (станция метро)"
  },
  {
    "category": "railway",
    "image": "https://commons.wikimedia.org/w/thumb.php?width=500&f=Moscow metro Bulvar admirala Ushakova 2007-05.jpg",
    "latitude": 55.5454337,
    "longitude": 37.5432114,
    "name_en": "Bulvar Admirala Ushakova",
    "name_ru": "Бульвар Адмирала Ушакова",
    "opening_hours": null,
    "osm_id": 296932668,
    "osm_type": "node",
    "phone": null,
    "website": null,
    "wikidata": "Q936502",
    "wikipedia": "ru:Бульвар Адмирала Ушакова (станция метро)"
  },
  {
    "category": "railway",
    "image": "https://commons.wikimedia.org/w/thumb.php?width=500&f=The Taganskaya Station Interior.jpg",
    "latitude": 55.741665,
    "longitude": 37.6513234,
    "name_en": "Taganskaya",
    "name_ru": "Таганская",
    "opening_hours": null,
    "osm_id": 296045315,
    "osm_type": "node",
    "phone": null,
    "website": null,
    "wikidata": "Q1316964",
    "wikipedia": "ru:Таганская (станция метро, Кольцевая линия)"
  },
  {
    "category": "railway",
    "image": "https://commons.wikimedia.org/w/thumb.php?width=500&f=Ulitsa Gorchakova station.jpg",
    "latitude": 55.5416949,
    "longitude": 37.530718,
    "name_en": "Ulitsa Gorchakova",
    "name_ru": "Улица Горчакова",
    "opening_hours": null,
    "osm_id": 296932670,
    "osm_type": "node",
    "phone": null,
    "website": null,
    "wikidata": "Q2369705",
    "wikipedia": "ru:Улица Горчакова (станция метро)"
  },
  {
    "category": "railway",
    "image": "https://commons.wikimedia.org/w/thumb.php?width=500&f=Buninskaya.jpg",
    "latitude": 55.5381467,
    "longitude": 37.5165467,
    "name_en": "Buninskaya Alleya",
    "name_ru": "Бунинская аллея",
    "opening_hours": null,
    "osm_id": 296932673,
    "osm_type": "node",
    "phone": null,
    "website": null,
    "wikidata": "Q2369692",
    "wikipedia": "ru:Бунинская аллея (станция метро)"
  },
  {
    "category": "museum",
    "image": "https://commons.wikimedia.org/w/thumb.php?width=500&f=Darvinovskiy museum.jpg",
    "latitude": 55.6907141,
    "longitude": 37.5614951,
    "name_en": "The State Darwin Museum",
    "name_ru": "Государственный Дарвиновский музей",
    "opening_hours": "Tu-Su 10:00-18:00",
    "osm_id": 288506766,
    "osm_type": "node",
    "phone": "+7 499 1346124",
    "website": null,
    "wikidata": "Q1107243",
    "wikipedia": "ru:Государственный Дарвиновский музей"
  },
  {
    "category": "railway",
    "image": "https://commons.wikimedia.org/w/thumb.php?width=500&f=MosMetro Trubnaya asv2018-01.jpg",
    "latitude": 55.7691136,
    "longitude": 37.6195511,
    "name_en": "Trubnaya",
    "name_ru": "Трубная",
    "opening_hours": null,
    "osm_id": 296944258,
    "osm_type": "node",
    "phone": null,
    "website": null,
    "wikidata": "Q2551026",
    "wikipedia": "ru:Трубная (станция метро)"
  },
  {
    "category": "railway",
    "image": "https://commons.wikimedia.org/w/thumb.php?width=500&f=Ulitsa Skobelevskaya station.jpg",
    "latitude": 55.5481082,
    "longitude": 37.5546254,
    "name_en": "Ulitsa Skobelevskaya",
    "name_ru": "Улица Скобелевская",
    "opening_hours": null,
    "osm_id": 296932663,
    "osm_type": "node",
    "phone": null,
    "website": null,
    "wikidata": "Q2626541",
    "wikipedia": "ru:Улица Скобелевская (станция метро)"
  },
  {
    "category": "railway",
    "image": "https://commons.wikimedia.org/w/thumb.php?width=500&f=Rimskaya-mm.jpg",
    "latitude": 55.7463418,
    "longitude": 37.683251,
    "name_en": "Rimskaya",
    "name_ru": "Римская",
    "opening_hours": null,
    "osm_id": 296947177,
    "osm_type": "node",
    "phone": null,
    "website": null,
    "wikidata": "Q2551345",
    "wikipedia": "ru:Римская (станция метро)"
  },
  {
    "category": "railway",
    "image": "https://commons.wikimedia.org/w/thumb.php?width=500&f=Kozhukhovskaya-mm.jpg",
    "latitude": 55.7075865,
    "longitude": 37.6846176,
    "name_en": "Kozhukhovskaya",
    "name_ru": "Кожуховская",
    "opening_hours": null,
    "osm_id": 296949274,
    "osm_type": "node",
    "phone": null,
    "website": null,
    "wikidata": "Q2551372",
    "wikipedia": "ru:Кожуховская (станция метро)"
  },
  {
    "category": "railway",
    "image": "https://commons.wikimedia.org/w/thumb.php?width=500&f=MosMetro Avtozavodskaya 01-2017.jpg",
    "latitude": 55.7073446,
    "longitude": 37.6577684,
    "name_en": "Avtozavodskaya",
    "name_ru": "Автозаводская",
    "opening_hours": null,
    "osm_id": 292146578,
    "osm_type": "node",
    "phone": null,
    "website": null,
    "wikidata": "Q2604358",
    "wikipedia": "ru:Автозаводская (станция метро, Москва)"
  },
  {
    "category": "railway",
    "image": "https://commons.wikimedia.org/w/thumb.php?width=500&f=Pechatniki-mm.jpg",
    "latitude": 55.6934907,
    "longitude": 37.726952,
    "name_en": "Pechatniki",
    "name_ru": "Печатники",
    "opening_hours": null,
    "osm_id": 296949278,
    "osm_type": "node",
    "phone": null,
    "website": null,
    "wikidata": "Q2551435",
    "wikipedia": "ru:Печатники (станция метро, Люблинско-Дмитровская линия)"
  },
  {
    "category": "railway",
    "image": "https://commons.wikimedia.org/w/thumb.php?width=500&f=Volzhskaya-mm.jpg",
    "latitude": 55.690865,
    "longitude": 37.7532193,
    "name_en": "Volzhskaya",
    "name_ru": "Волжская",
    "opening_hours": null,
    "osm_id": 296949283,
    "osm_type": "node",
    "phone": null,
    "website": null,
    "wikidata": "Q2303787",
    "wikipedia": "ru:Волжская (станция метро)"
  },
  {
    "category": "railway",
    "image": "https://commons.wikimedia.org/w/thumb.php?width=500&f=Lyublino-mm.jpg",
    "latitude": 55.6757211,
    "longitude": 37.7619581,
    "name_en": "Lyublino",
    "name_ru": "Люблино",
    "opening_hours": null,
    "osm_id": 296949285,
    "osm_type": "node",
    "phone": null,
    "website": null,
    "wikidata": "Q2551405",
    "wikipedia": "ru:Люблино (станция метро)"
  },
  {
    "category": "railway",
    "image": "https://commons.wikimedia.org/w/thumb.php?width=500&f=Maryino-mm.jpg",
    "latitude": 55.6500158,
    "longitude": 37.7431467,
    "name_en": "Maryino",
    "name_ru": "Марьино",
    "opening_hours": "05:35-01:00",
    "osm_id": 296949290,
    "osm_type": "node",
    "phone": null,
    "website": null,
    "wikidata": "Q971065",
    "wikipedia": "ru:Марьино (станция метро)"
  },
  {
    "category": "railway",
    "image": "https://commons.wikimedia.org/w/thumb.php?width=500&f=Метро Пражская 01.jpg",
    "latitude": 55.6123741,
    "longitude": 37.6045238,
    "name_en": "Prazhskaya",
    "name_ru": "Пражская",
    "opening_hours": null,
    "osm_id": 296953138,
    "osm_type": "node",
    "phone": null,
    "website": null,
    "wikidata": "Q777410",
    "wikipedia": "ru:Пражская (станция метро)"
  },
  {
    "category": "railway",
    "image": "https://commons.wikimedia.org/w/thumb.php?width=500&f=Metro MSK Line9 Timiryazevskaya.jpg",
    "latitude": 55.8171256,
    "longitude": 37.5763885,
    "name_en": "Timiryazevskaya",
    "name_ru": "Тимирязевская",
    "opening_hours": null,
    "osm_id": 296956167,
    "osm_type": "node",
    "phone": null,
    "website": null,
    "wikidata": "Q1187161",
    "wikipedia": "ru:Тимирязевская (станция метро)"
  },
  {
    "category": "railway",
    "image": "https://commons.wikimedia.org/w/thumb.php?width=500&f=The-Bibirevo-Metro--3.jpg",
    "latitude": 55.8838831,
    "longitude": 37.6035808,
    "name_en": "Bibirevo",
    "name_ru": "Бибирево",
    "opening_hours": null,
    "osm_id": 296957239,
    "osm_type": "node",
    "phone": null,
    "website": null,
    "wikidata": "Q1187471",
    "wikipedia": "ru:Бибирево (станция метро)"
  },
  {
    "category": "railway",
    "image": "https://commons.wikimedia.org/w/thumb.php?width=500&f=Planernaya-mm.jpg",
    "latitude": 55.8606544,
    "longitude": 37.4365264,
    "name_en": "Planernaya",
    "name_ru": "Планерная",
    "opening_hours": null,
    "osm_id": 296959502,
    "osm_type": "node",
    "phone": null,
    "website": null,
    "wikidata": "Q2549402",
    "wikipedia": "ru:Планерная (станция метро)"
  },
  {
    "category": "railway",
    "image": "https://commons.wikimedia.org/w/thumb.php?width=500&f=Tushinskaya-mm.jpg",
    "latitude": 55.8265293,
    "longitude": 37.4369761,
    "name_en": "Tushinskaya",
    "name_ru": "Тушинская",
    "opening_hours": null,
    "osm_id": 296959504,
    "osm_type": "node",
    "phone": null,
    "website": null,
    "wikidata": "Q784024",
    "wikipedia": "ru:Тушинская (станция метро)"
  },
  {
    "category": "railway",
    "image": "https://commons.wikimedia.org/w/thumb.php?width=500&f=Metro station Altyfievo Moscow.jpg",
    "latitude": 55.8979224,
    "longitude": 37.5873584,
    "name_en": "Altufyevo",
    "name_ru": "Алтуфьево",
    "opening_hours": null,
    "osm_id": 296957238,
    "osm_type": "node",
    "phone": null,
    "website": null,
    "wikidata": "Q932858",
    "wikipedia": "ru:Алтуфьево (станция метро)"
  },
  {
    "category": "railway",
    "image": "https://commons.wikimedia.org/w/thumb.php?width=500&f=Shchukinskaya-mm.jpg",
    "latitude": 55.8084608,
    "longitude": 37.4647008,
    "name_en": "Shchukinskaya",
    "name_ru": "Щукинская",
    "opening_hours": null,
    "osm_id": 296959505,
    "osm_type": "node",
    "phone": null,
    "website": null,
    "wikidata": "Q2548953",
    "wikipedia": "ru:Щукинская (станция метро)"
  },
  {
    "category": "railway",
    "image": "https://commons.wikimedia.org/w/thumb.php?width=500&f=Metro MSK Line7 Barrikadnaya.jpg",
    "latitude": 55.7611218,
    "longitude": 37.5793053,
    "name_en": "Barrikadnaya",
    "name_ru": "Баррикадная",
    "opening_hours": null,
    "osm_id": 296959510,
    "osm_type": "node",
    "phone": null,
    "website": null,
    "wikidata": "Q2721994",
    "wikipedia": "ru:Баррикадная (станция метро)"
  },
  {
    "category": "railway",
    "image": "https://commons.wikimedia.org/w/thumb.php?width=500&f=Dubrovka (Дубровка) (5436219877).jpg",
    "latitude": 55.7192085,
    "longitude": 37.6755406,
    "name_en": "Dubrovka",
    "name_ru": "Дубровка",
    "opening_hours": null,
    "osm_id": 296947185,
    "osm_type": "node",
    "phone": null,
    "website": null,
    "wikidata": "Q2551380",
    "wikipedia": "ru:Дубровка (станция метро)"
  },
  {
    "category": "railway",
    "image": "https://commons.wikimedia.org/w/thumb.php?width=500&f=MosMetro Tsaritsino platform 01-2016.jpg",
    "latitude": 55.6214833,
    "longitude": 37.6692504,
    "name_en": "Tsaritsyno",
    "name_ru": "Царицыно",
    "opening_hours": null,
    "osm_id": 308993196,
    "osm_type": "node",
    "phone": null,
    "website": null,
    "wikidata": "Q2721285",
    "wikipedia": "ru:Царицыно (станция метро)"
  },
  {
    "category": "railway",
    "image": "https://commons.wikimedia.org/w/thumb.php?width=500&f=Krestyanskaya Zastava.jpg",
    "latitude": 55.7331695,
    "longitude": 37.6674776,
    "name_en": "Krestyanskaya Zastava",
    "name_ru": "Крестьянская Застава",
    "opening_hours": null,
    "osm_id": 297773322,
    "osm_type": "node",
    "phone": null,
    "website": null,
    "wikidata": "Q2551037",
    "wikipedia": "ru:Крестьянская застава (станция метро)"
  },
  {
    "category": "railway",
    "image": "https://commons.wikimedia.org/w/thumb.php?width=500&f=MosMetro Krasnopresnenskaya asv2018-01.jpg",
    "latitude": 55.761185,
    "longitude": 37.577329,
    "name_en": "Krasnopresnenskaya",
    "name_ru": "Краснопресненская",
    "opening_hours": null,
    "osm_id": 309744779,
    "osm_type": "node",
    "phone": null,
    "website": null,
    "wikidata": "Q645097",
    "wikipedia": "ru:Краснопресненская (станция метро)"
  },
  {
    "category": "area",
    "image": null,
    "latitude": 55.7847484,
    "longitude": 37.3578796,
    "name_en": "Rublevo",
    "name_ru": "Рублёво",
    "opening_hours": null,
    "osm_id": 308666843,
    "osm_type": "node",
    "phone": null,
    "website": null,
    "wikidata": "Q4399157",
    "wikipedia": "ru:Рублёво"
  },
  {
    "category": "railway",
    "image": "https://commons.wikimedia.org/w/thumb.php?width=500&f=Oktpole-mm.jpg",
    "latitude": 55.7933663,
    "longitude": 37.4938123,
    "name_en": "Oktyabrskoye Pole",
    "name_ru": "Октябрьское Поле",
    "opening_hours": null,
    "osm_id": 309748905,
    "osm_type": "node",
    "phone": null,
    "website": null,
    "wikidata": "Q2549456",
    "wikipedia": "ru:Октябрьское Поле (станция метро)"
  },
  {
    "category": "railway",
    "image": "https://commons.wikimedia.org/w/thumb.php?width=500&f=Ugo-zapadnaya3.jpg",
    "latitude": 55.6636469,
    "longitude": 37.4832189,
    "name_en": "Yugo-Zapadnaya",
    "name_ru": "Юго-Западная",
    "opening_hours": null,
    "osm_id": 309752486,
    "osm_type": "node",
    "phone": null,
    "website": null,
    "wikidata": "Q1341272",
    "wikipedia": "ru:Юго-Западная (станция метро, Москва)"
  },
  {
    "category": "railway",
    "image": "https://commons.wikimedia.org/w/thumb.php?width=500&f=Boynya-Tovarnaya station.jpg",
    "latitude": 55.7259229,
    "longitude": 37.6934157,
    "name_en": null,
    "name_ru": "Бойня",
    "opening_hours": null,
    "osm_id": 311717434,
    "osm_type": "node",
    "phone": null,
    "website": null,
    "wikidata": "Q4090455",
    "wikipedia": "ru:Бойня (станция)"
  },
  {
    "category": "attraction",
    "image": "https://commons.wikimedia.org/w/thumb.php?width=500&f=00 4841 Tsar Bell - Moscow Kremlin.jpg",
    "latitude": 55.7507983,
    "longitude": 37.6184747,
    "name_en": "Tsar Bell",
    "name_ru": "Царь-колокол",
    "opening_hours": null,
    "osm_id": 311999397,
    "osm_type": "node",
    "phone": null,
    "website": null,
    "wikidata": "Q147875",
    "wikipedia": "ru:Царь-колокол"
  },
  {
    "category": "railway",
    "image": "https://commons.wikimedia.org/w/thumb.php?width=500&f=Метро Южная 01.jpg",
    "latitude": 55.622256,
    "longitude": 37.6092188,
    "name_en": "Yuzhnaya",
    "name_ru": "Южная",
    "opening_hours": null,
    "osm_id": 296953137,
    "osm_type": "node",
    "phone": null,
    "website": null,
    "wikidata": "Q1187776",
    "wikipedia": "ru:Южная (станция метро)"
  },
  {
    "category": "railway",
    "image": "https://commons.wikimedia.org/w/thumb.php?width=500&f=MosMetro Polyanka asv2018-01.jpg",
    "latitude": 55.7381678,
    "longitude": 37.6171996,
    "name_en": "Polyanka",
    "name_ru": "Полянка",
    "opening_hours": null,
    "osm_id": 312816773,
    "osm_type": "node",
    "phone": null,
    "website": null,
    "wikidata": "Q280528",
    "wikipedia": "ru:Полянка (станция метро)"
  },
  {
    "category": "attraction",
    "image": "https://commons.wikimedia.org/w/thumb.php?width=500&f=00 4835. Moskauer Kreml - Zarenkanone.jpg",
    "latitude": 55.7514667,
    "longitude": 37.6179211,
    "name_en": "Tsar Cannon",
    "name_ru": "Царь-пушка",
    "opening_hours": null,
    "osm_id": 311999396,
    "osm_type": "node",
    "phone": null,
    "website": null,
    "wikidata": "Q147881",
    "wikipedia": "ru:Царь-пушка"
  },
  {
    "category": "railway",
    "image": "https://commons.wikimedia.org/w/thumb.php?width=500&f=Kakhovskaya - station hall (2).jpg",
    "latitude": 55.6529181,
    "longitude": 37.5984297,
    "name_en": "Kakhovskaya",
    "name_ru": "Каховская",
    "opening_hours": null,
    "osm_id": 314679443,
    "osm_type": "node",
    "phone": null,
    "website": null,
    "wikidata": "Q2720409",
    "wikipedia": "ru:Каховская (станция метро)"
  },
  {
    "category": "railway",
    "image": "https://commons.wikimedia.org/w/thumb.php?width=500&f=Malenkovskaya-station.jpg",
    "latitude": 55.8143683,
    "longitude": 37.6628638,
    "name_en": "Malenkovskaya",
    "name_ru": "Маленковская",
    "opening_hours": null,
    "osm_id": 316082112,
    "osm_type": "node",
    "phone": null,
    "website": null,
    "wikidata": "Q4277648",
    "wikipedia": "ru:Маленковская (платформа)"
  },
  {
    "category": "railway",
    "image": "https://commons.wikimedia.org/w/thumb.php?width=500&f=Vostryakowo eki 2007.jpg",
    "latitude": 55.666803,
    "longitude": 37.4246099,
    "name_en": "Meshchyorskaya",
    "name_ru": "Мещёрская",
    "opening_hours": null,
    "osm_id": 316850875,
    "osm_type": "node",
    "phone": null,
    "website": null,
    "wikidata": "Q4422081",
    "wikipedia": "ru:Мещерская (платформа)"
  },
  {
    "category": "railway",
    "image": "https://commons.wikimedia.org/w/thumb.php?width=500&f=Yauza railplatform.jpg",
    "latitude": 55.8287773,
    "longitude": 37.6712046,
    "name_en": "Yauza",
    "name_ru": "Яуза",
    "opening_hours": null,
    "osm_id": 316082114,
    "osm_type": "node",
    "phone": null,
    "website": null,
    "wikidata": "Q4539629",
    "wikipedia": "ru:Яуза (платформа)"
  },
  {
    "category": "railway",
    "image": "https://commons.wikimedia.org/w/thumb.php?width=500&f=Skhodnenskaya station.jpg",
    "latitude": 55.8504805,
    "longitude": 37.4397738,
    "name_en": "Skhodnenskaya",
    "name_ru": "Сходненская",
    "opening_hours": null,
    "osm_id": 309750154,
    "osm_type": "node",
    "phone": null,
    "website": null,
    "wikidata": "Q2549426",
    "wikipedia": "ru:Сходненская (станция метро)"
  },
  {
    "category": "railway",
    "image": "https://commons.wikimedia.org/w/thumb.php?width=500&f=Bratislavskaya-mm.jpg",
    "latitude": 55.659739,
    "longitude": 37.7506688,
    "name_en": "Bratislavskaya",
    "name_ru": "Братиславская",
    "opening_hours": null,
    "osm_id": 333159878,
    "osm_type": "node",
    "phone": null,
    "website": null,
    "wikidata": "Q2605871",
    "wikipedia": "ru:Братиславская (станция метро, Москва)"
  },
  {
    "category": "area",
    "image": null,
    "latitude": 55.939872,
    "longitude": 37.3564143,
    "name_en": "Novopodrezkovo",
    "name_ru": "Новоподрезково",
    "opening_hours": null,
    "osm_id": 360000993,
    "osm_type": "node",
    "phone": null,
    "website": null,
    "wikidata": "Q37898590",
    "wikipedia": "ru:Новоподрезково (Москва)"
  },
  {
    "category": "area",
    "image": null,
    "latitude": 55.507641,
    "longitude": 37.581375,
    "name_en": null,
    "name_ru": "Липки",
    "opening_hours": null,
    "osm_id": 367811759,
    "osm_type": "node",
    "phone": null,
    "website": null,
    "wikidata": "Q86682145",
    "wikipedia": "ru:Липки (Москва)"
  },
  {
    "category": "monument",
    "image": "https://commons.wikimedia.org/w/thumb.php?width=500&f=Памятник св. Даниилу Московскому (справа).jpg",
    "latitude": 55.7128651,
    "longitude": 37.6230803,
    "name_en": "St. Prince Daniil",
    "name_ru": "Св. князю Даниилу",
    "opening_hours": null,
    "osm_id": 365393846,
    "osm_type": "node",
    "phone": null,
    "website": null,
    "wikidata": "Q16271063",
    "wikipedia": "ru:Памятник князю Даниилу Московскому"
  },
  {
    "category": "area",
    "image": null,
    "latitude": 55.5088667,
    "longitude": 37.5434112,
    "name_en": null,
    "name_ru": "Староникольское",
    "opening_hours": null,
    "osm_id": 368159178,
    "osm_type": "node",
    "phone": null,
    "website": null,
    "wikidata": "Q4440518",
    "wikipedia": "ru:Староникольское (Москва)"
  },
  {
    "category": "railway",
    "image": "https://commons.wikimedia.org/w/thumb.php?width=500&f=Birulevo-tov-station.jpg",
    "latitude": 55.5927752,
    "longitude": 37.6539345,
    "name_en": "Biryulyovo-Tovarnaya",
    "name_ru": "Бирюлёво-Товарная",
    "opening_hours": null,
    "osm_id": 311605855,
    "osm_type": "node",
    "phone": null,
    "website": null,
    "wikidata": "Q4087177",
    "wikipedia": "ru:Бирюлёво-Товарное"
  },
  {
    "category": "area",
    "image": null,
    "latitude": 55.7599018,
    "longitude": 37.469507,
    "name_en": null,
    "name_ru": "Нижние Мнёвники",
    "opening_hours": null,
    "osm_id": 375580433,
    "osm_type": "node",
    "phone": null,
    "website": null,
    "wikidata": "Q4473329",
    "wikipedia": "ru:Улица Нижние Мнёвники"
  },
  {
    "category": "area",
    "image": null,
    "latitude": 55.4969264,
    "longitude": 37.5855102,
    "name_en": null,
    "name_ru": "Захарьино",
    "opening_hours": null,
    "osm_id": 375569417,
    "osm_type": "node",
    "phone": null,
    "website": null,
    "wikidata": "Q19906450",
    "wikipedia": "ru:Захарьино (Москва)"
  },
  {
    "category": "area",
    "image": "https://commons.wikimedia.org/w/thumb.php?width=500&f=Пруд во втором квартале Капотни.JPG",
    "latitude": 55.6367482,
    "longitude": 37.7984857,
    "name_en": "Kapotnya",
    "name_ru": "Капотня",
    "opening_hours": null,
    "osm_id": 414570597,
    "osm_type": "node",
    "phone": null,
    "website": null,
    "wikidata": "Q1963403",
    "wikipedia": "ru:Капотня (район)"
  },
  {
    "category": "area",
    "image": "https://commons.wikimedia.org/w/thumb.php?width=500&f=Марьино.JPG",
    "latitude": 55.650711,
    "longitude": 37.7353743,
    "name_en": "Maryino",
    "name_ru": "Марьино",
    "opening_hours": null,
    "osm_id": 414570599,
    "osm_type": "node",
    "phone": null,
    "website": null,
    "wikidata": "Q1958176",
    "wikipedia": "ru:Марьино (район Москвы)"
  },
  {
    "category": "area",
    "image": null,
    "latitude": 55.6359246,
    "longitude": 37.7619218,
    "name_en": "Brateyevo",
    "name_ru": "Братеево",
    "opening_hours": null,
    "osm_id": 414570598,
    "osm_type": "node",
    "phone": null,
    "website": null,
    "wikidata": "Q4095874",
    "wikipedia": "ru:Братеево (Москва)"
  },
  {
    "category": "area",
    "image": "https://commons.wikimedia.org/w/thumb.php?width=500&f=Москва, въезд в район Люблино.JPG",
    "latitude": 55.677325,
    "longitude": 37.755227,
    "name_en": "Lyublino",
    "name_ru": "Люблино",
    "opening_hours": null,
    "osm_id": 414570600,
    "osm_type": "node",
    "phone": null,
    "website": null,
    "wikidata": "Q1963431",
    "wikipedia": "ru:Люблино (район Москвы)"
  },
  {
    "category": "area",
    "image": "https://commons.wikimedia.org/w/thumb.php?width=500&f=Pechatniki district.jpg",
    "latitude": 55.6849592,
    "longitude": 37.7236236,
    "name_en": "Pechatniki",
    "name_ru": "Печатники",
    "opening_hours": null,
    "osm_id": 415550327,
    "osm_type": "node",
    "phone": null,
    "website": null,
    "wikidata": "Q2367394",
    "wikipedia": "ru:Печатники (район Москвы)"
  },
  {
    "category": "monument",
    "image": null,
    "latitude": 55.7644614,
    "longitude": 37.639259,
    "name_en": null,
    "name_ru": "А. С. Грибоедову",
    "opening_hours": null,
    "osm_id": 416562786,
    "osm_type": "node",
    "phone": null,
    "website": null,
    "wikidata": "Q4343134",
    "wikipedia": "ru:Памятник Грибоедову (Москва)"
  },
  {
    "category": "area",
    "image": "https://commons.wikimedia.org/w/thumb.php?width=500&f=Нагатинская пойма 07.jpg",
    "latitude": 55.682346,
    "longitude": 37.705917,
    "name_en": "Nagatinsky Zaton",
    "name_ru": "Нагатинский Затон",
    "opening_hours": null,
    "osm_id": 415550328,
    "osm_type": "node",
    "phone": null,
    "website": null,
    "wikidata": "Q1963453",
    "wikipedia": "ru:Нагатинский Затон (район Москвы)"
  },
  {
    "category": "monument",
    "image": "https://commons.wikimedia.org/w/thumb.php?width=500&f=Moscow, Sretensky Boulevard 2014 03.JPG",
    "latitude": 55.7666315,
    "longitude": 37.6322945,
    "name_en": "Nadezhda Krupskaya",
    "name_ru": "Н. К. Крупской",
    "opening_hours": null,
    "osm_id": 416562788,
    "osm_type": "node",
    "phone": null,
    "website": null,
    "wikidata": "Q19907058",
    "wikipedia": "ru:Памятник Надежде Крупской"
  },
  {
    "category": "monument",
    "image": "https://commons.wikimedia.org/w/thumb.php?width=500&f=PushkinMskVblizi.jpg",
    "latitude": 55.7653354,
    "longitude": 37.6054856,
    "name_en": "Alexander Pushkin",
    "name_ru": "А. С. Пушкину",
    "opening_hours": null,
    "osm_id": 416562790,
    "osm_type": "node",
    "phone": null,
    "website": null,
    "wikidata": "Q4343030",
    "wikipedia": "ru:Памятник А. С. Пушкину (Москва, Пушкинская площадь)"
  },
  {
    "category": "monument",
    "image": "https://commons.wikimedia.org/w/thumb.php?width=500&f=TverskoyBoulevardMoscow.jpg",
    "latitude": 55.7579029,
    "longitude": 37.5985884,
    "name_en": "K. Timiryazev",
    "name_ru": "К. А. Тимирязеву",
    "opening_hours": null,
    "osm_id": 416562791,
    "osm_type": "node",
    "phone": null,
    "website": null,
    "wikidata": "Q16271056",
    "wikipedia": "ru:Памятник Тимирязеву (Москва)"
  },
  {
    "category": "monument",
    "image": null,
    "latitude": 55.7457521,
    "longitude": 37.6068567,
    "name_en": null,
    "name_ru": "Император Александр II Освободитель",
    "opening_hours": null,
    "osm_id": 416562794,
    "osm_type": "node",
    "phone": null,
    "website": null,
    "wikidata": "Q4343051",
    "wikipedia": "ru:Памятник Александру II (Москва)"
  },
  {
    "category": "area",
    "image": null,
    "latitude": 55.6206485,
    "longitude": 37.7461048,
    "name_en": "Zyablikovo",
    "name_ru": "Зябликово",
    "opening_hours": null,
    "osm_id": 417273587,
    "osm_type": "node",
    "phone": null,
    "website": null,
    "wikidata": "Q4194998",
    "wikipedia": "ru:Зябликово (Москва)"
  },
  {
    "category": "area",
    "image": "https://commons.wikimedia.org/w/thumb.php?width=500&f=Кавказский бульвар. Вид к круговому движению.JPG",
    "latitude": 55.6265942,
    "longitude": 37.6670226,
    "name_en": "Tsaritsyno",
    "name_ru": "Царицыно",
    "opening_hours": null,
    "osm_id": 418143194,
    "osm_type": "node",
    "phone": null,
    "website": null,
    "wikidata": "Q508433",
    "wikipedia": "ru:Царицыно (район Москвы)"
  },
  {
    "category": "area",
    "image": null,
    "latitude": 55.6142251,
    "longitude": 37.7182576,
    "name_en": "Orekhovo-Borisovo Severnoye District",
    "name_ru": "Орехово-Борисово",
    "opening_hours": null,
    "osm_id": 417273588,
    "osm_type": "node",
    "phone": null,
    "website": null,
    "wikidata": "Q4336293",
    "wikipedia": "ru:Орехово-Борисово"
  },
  {
    "category": "theatre",
    "image": "https://commons.wikimedia.org/w/thumb.php?width=500&f=Teatro Sud-Okcidente.JPG",
    "latitude": 55.6553773,
    "longitude": 37.4811464,
    "name_en": null,
    "name_ru": "Театр на Юго-Западе",
    "opening_hours": "Mo-Su 14:00-20:00",
    "osm_id": 418747833,
    "osm_type": "node",
    "phone": "+7 495 4331191",
    "website": null,
    "wikidata": "Q4453489",
    "wikipedia": "ru:Театр на Юго-Западе"
  },
  {
    "category": "monument",
    "image": "https://commons.wikimedia.org/w/thumb.php?width=500&f=The victory monument.jpg",
    "latitude": 55.731699,
    "longitude": 37.5070085,
    "name_en": null,
    "name_ru": "Монумент Победы",
    "opening_hours": null,
    "osm_id": 420424302,
    "osm_type": "node",
    "phone": null,
    "website": null,
    "wikidata": "Q4302178",
    "wikipedia": "ru:Монумент Победы"
  },
  {
    "category": "railway",
    "image": "https://commons.wikimedia.org/w/thumb.php?width=500&f=Pokrovskoe-Streshnevo Station.jpg",
    "latitude": 55.8141995,
    "longitude": 37.4768205,
    "name_en": "Pokrovskoye-Streshnevo",
    "name_ru": "Покровско-Стрешнево",
    "opening_hours": null,
    "osm_id": 322025308,
    "osm_type": "node",
    "phone": null,
    "website": null,
    "wikidata": "Q4369390",
    "wikipedia": "ru:Покровское-Стрешнево (платформа)"
  },
  {
    "category": "attraction",
    "image": "https://commons.wikimedia.org/w/thumb.php?width=500&f=Moskva bookstore interior (24315910183).jpg",
    "latitude": 55.7625389,
    "longitude": 37.6089133,
    "name_en": "Moscow",
    "name_ru": "Москва",
    "opening_hours": "Mo-Su 10:00-22:00",
    "osm_id": 447645714,
    "osm_type": "node",
    "phone": "+7 495 6296483",
    "website": "http://www.moscowbooks.ru",
    "wikidata": "Q4303722",
    "wikipedia": "ru:Москва (книжный магазин)"
  },
  {
    "category": "railway",
    "image": "https://commons.wikimedia.org/w/thumb.php?width=500&f=Yaroslavsky Train Terminal, Moscow, Russia - 2013-05-19 - 90650652.jpg",
    "latitude": 55.7784041,
    "longitude": 37.6567616,
    "name_en": "Moscow Yaroslavsky railway station",
    "name_ru": "Москва-Пассажирская-Ярославская",
    "opening_hours": null,
    "osm_id": 473887668,
    "osm_type": "node",
    "phone": null,
    "website": null,
    "wikidata": "Q1329088",
    "wikipedia": "ru:Ярославский вокзал"
  },
  {
    "category": "railway",
    "image": null,
    "latitude": 55.7792011,
    "longitude": 37.6790736,
    "name_en": null,
    "name_ru": "Москва-Товарная-Рязанская",
    "opening_hours": null,
    "osm_id": 487099296,
    "osm_type": "node",
    "phone": null,
    "website": null,
    "wikidata": "Q4303702",
    "wikipedia": "ru:Москва-Товарная-Рязанская"
  },
  {
    "category": "area",
    "image": "https://commons.wikimedia.org/w/thumb.php?width=500&f=Южное Бутово - panoramio (1).jpg",
    "latitude": 55.5412721,
    "longitude": 37.5325392,
    "name_en": "Yuzhnoye Butovo",
    "name_ru": "Южное Бутово",
    "opening_hours": null,
    "osm_id": 418143332,
    "osm_type": "node",
    "phone": null,
    "website": null,
    "wikidata": "Q1963119",
    "wikipedia": "ru:Южное Бутово"
  },
  {
    "category": "monument",
    "image": "https://commons.wikimedia.org/w/thumb.php?width=500&f=Памятник Владимиру Высоцкому - panoramio.jpg",
    "latitude": 55.7681702,
    "longitude": 37.6129196,
    "name_en": null,
    "name_ru": "В. С. Высоцкому",
    "opening_hours": null,
    "osm_id": 416562789,
    "osm_type": "node",
    "phone": null,
    "website": null,
    "wikidata": "Q48945193",
    "wikipedia": "ru:Памятник Высоцкому (Москва)"
  },
  {
    "category": "government_agency",
    "image": null,
    "latitude": 55.7003427,
    "longitude": 37.7456191,
    "name_en": null,
    "name_ru": "Дворец Бракосочетания №3",
    "opening_hours": "Tu-Sa 09:00-14:00,15:00-18:00",
    "osm_id": 555943220,
    "osm_type": "node",
    "phone": "+7 499 1796614",
    "website": null,
    "wikidata": "Q745221",
    "wikipedia": "ru:ЗАГС"
  },
  {
    "category": "monument",
    "image": "https://commons.wikimedia.org/w/thumb.php?width=500&f=Evgeniya Rudneva.jpg",
    "latitude": 55.8668427,
    "longitude": 37.6755693,
    "name_en": null,
    "name_ru": "Лётчица Е.М.Руднева",
    "opening_hours": null,
    "osm_id": 561205490,
    "osm_type": "node",
    "phone": null,
    "website": null,
    "wikidata": "Q440173",
    "wikipedia": "ru:Руднева, Евгения Максимовна"
  },
  {
    "category": "monument",
    "image": "https://commons.wikimedia.org/w/thumb.php?width=500&f=Tverskoy District, Moscow, Russia - panoramio (185).jpg",
    "latitude": 55.769621,
    "longitude": 37.5956487,
    "name_en": "Vladimir Mayakovsky",
    "name_ru": "В. В. Маяковскому",
    "opening_hours": null,
    "osm_id": 566683529,
    "osm_type": "node",
    "phone": null,
    "website": null,
    "wikidata": "Q4343249",
    "wikipedia": "ru:Памятник Маяковскому (Москва)"
  },
  {
    "category": "theatre",
    "image": "https://commons.wikimedia.org/w/thumb.php?width=500&f=Театр-им-Ермоловой.jpg",
    "latitude": 55.757837,
    "longitude": 37.6125722,
    "name_en": "Yermolov Theatre",
    "name_ru": "Театр им. М. Н. Ермоловой",
    "opening_hours": null,
    "osm_id": 529550639,
    "osm_type": "node",
    "phone": "+7 495 6290594",
    "website": null,
    "wikidata": "Q1970338",
    "wikipedia": "ru:Московский драматический театр имени М. Н. Ермоловой"
  },
  {
    "category": "attraction",
    "image": "https://commons.wikimedia.org/w/thumb.php?width=500&f=Moscow 2008-06-26 Vorobyovy Gory.jpg",
    "latitude": 55.709356,
    "longitude": 37.5423321,
    "name_en": null,
    "name_ru": "Воробьевы горы",
    "opening_hours": null,
    "osm_id": 557264945,
    "osm_type": "node",
    "phone": null,
    "website": null,
    "wikidata": "Q592880",
    "wikipedia": "ru:Воробьёвы горы"
  },
  {
    "category": "monument",
    "image": null,
    "latitude": 55.7874959,
    "longitude": 37.6793857,
    "name_en": null,
    "name_ru": "Н. Гастелло",
    "opening_hours": null,
    "osm_id": 581068164,
    "osm_type": "node",
    "phone": null,
    "website": null,
    "wikidata": "Q4343124",
    "wikipedia": "ru:Памятник Гастелло (Москва)"
  },
  {
    "category": "attraction",
    "image": "https://commons.wikimedia.org/w/thumb.php?width=500&f=Kilometre Zero of Peninsular Malaysia.jpg",
    "latitude": 55.7558383,
    "longitude": 37.6176727,
    "name_en": "Kilometre zero",
    "name_ru": "Нулевой километр",
    "opening_hours": null,
    "osm_id": 583204619,
    "osm_type": "node",
    "phone": null,
    "website": null,
    "wikidata": "Q329477",
    "wikipedia": "ru:Нулевой километр"
  },
  {
    "category": "attraction",
    "image": "https://commons.wikimedia.org/w/thumb.php?width=500&f=Razumpalace.jpg",
    "latitude": 55.7626141,
    "longitude": 37.6685654,
    "name_en": "Razumovsky house",
    "name_ru": "Городская усадьба Разумовского",
    "opening_hours": null,
    "osm_id": 601766365,
    "osm_type": "node",
    "phone": null,
    "website": null,
    "wikidata": "Q4145444",
    "wikipedia": "ru:Городская усадьба Разумовского"
  },
  {
    "category": "area",
    "image": "https://commons.wikimedia.org/w/thumb.php?width=500&f=Yuzhnoye Tushino District, Moscow, Russia - panoramio (12).jpg",
    "latitude": 55.8438581,
    "longitude": 37.4315406,
    "name_en": "Yuzhnoye Tushino",
    "name_ru": "Южное Тушино",
    "opening_hours": null,
    "osm_id": 614303764,
    "osm_type": "node",
    "phone": null,
    "website": null,
    "wikidata": "Q2366829",
    "wikipedia": "ru:Южное Тушино"
  },
  {
    "category": "area",
    "image": "https://commons.wikimedia.org/w/thumb.php?width=500&f=Mitino-3 from d40 2011-09N28.jpg",
    "latitude": 55.8454574,
    "longitude": 37.3670608,
    "name_en": "Mitino District",
    "name_ru": "Митино",
    "opening_hours": null,
    "osm_id": 614962712,
    "osm_type": "node",
    "phone": null,
    "website": null,
    "wikidata": "Q2625558",
    "wikipedia": "ru:Митино (район Москвы)"
  },
  {
    "category": "attraction",
    "image": "https://commons.wikimedia.org/w/thumb.php?width=500&f=Ouvrier kolkhosienne 2.jpg",
    "latitude": 55.8280999,
    "longitude": 37.6470354,
    "name_en": "Worker and Kolkhoz Woman",
    "name_ru": "Рабочий и колхозница",
    "opening_hours": null,
    "osm_id": 614438912,
    "osm_type": "node",
    "phone": null,
    "website": null,
    "wikidata": "Q627114",
    "wikipedia": "ru:Рабочий и колхозница"
  },
  {
    "category": "area",
    "image": null,
    "latitude": 55.8013351,
    "longitude": 37.4030525,
    "name_en": "Strogino",
    "name_ru": "Строгино",
    "opening_hours": null,
    "osm_id": 615245397,
    "osm_type": "node",
    "phone": null,
    "website": null,
    "wikidata": "Q16702575",
    "wikipedia": "ru:Строгино (район Москвы)"
  },
  {
    "category": "area",
    "image": "https://commons.wikimedia.org/w/thumb.php?width=500&f=Severnoye Tushino District, Moscow, Russia - panoramio - karel291 (8).jpg",
    "latitude": 55.8632245,
    "longitude": 37.4279373,
    "name_en": "Severnoye Tushino",
    "name_ru": "Северное Тушино",
    "opening_hours": null,
    "osm_id": 614303760,
    "osm_type": "node",
    "phone": null,
    "website": null,
    "wikidata": "Q2367469",
    "wikipedia": "ru:Северное Тушино"
  },
  {
    "category": "theatre",
    "image": "https://commons.wikimedia.org/w/thumb.php?width=500&f=Moscow, Bersenevskaya Embankment 2008 02.jpg",
    "latitude": 55.744836,
    "longitude": 37.6112984,
    "name_en": "Theatre of Estrada",
    "name_ru": "Театр Эстрады",
    "opening_hours": null,
    "osm_id": 619910548,
    "osm_type": "node",
    "phone": "+7 495 9590550",
    "website": null,
    "wikidata": "Q4304090",
    "wikipedia": "ru:Московский театр эстрады"
  },
  {
    "category": "government_agency",
    "image": "https://commons.wikimedia.org/w/thumb.php?width=500&f=Podkolokolny 10 02.jpg",
    "latitude": 55.7525862,
    "longitude": 37.6424555,
    "name_en": "Australia Embassy",
    "name_ru": "Посольство Австралии",
    "opening_hours": "Mo-Fr 09:00-17:00",
    "osm_id": 622006644,
    "osm_type": "node",
    "phone": null,
    "website": null,
    "wikidata": "Q4373961",
    "wikipedia": "ru:Посольство Австралии в России"
  },
  {
    "category": "area",
    "image": "https://commons.wikimedia.org/w/thumb.php?width=500&f=Ясенево усадьба.jpg",
    "latitude": 55.60666,
    "longitude": 37.534007,
    "name_en": "Yasenevo",
    "name_ru": "Ясенево",
    "opening_hours": null,
    "osm_id": 618942588,
    "osm_type": "node",
    "phone": null,
    "website": null,
    "wikidata": "Q20968662",
    "wikipedia": "ru:Ясенево (Москва)"
  },
  {
    "category": "area",
    "image": "https://commons.wikimedia.org/w/thumb.php?width=500&f=Церковь Троицы в Конькове.jpg",
    "latitude": 55.634781,
    "longitude": 37.527508,
    "name_en": "Konkovo",
    "name_ru": "Коньково",
    "opening_hours": null,
    "osm_id": 618942589,
    "osm_type": "node",
    "phone": null,
    "website": null,
    "wikidata": "Q122788",
    "wikipedia": "ru:Коньково (район Москвы)"
  },
  {
    "category": "area",
    "image": "https://commons.wikimedia.org/w/thumb.php?width=500&f=Aerial View Moscow Tyoplyi Stan (15755046497).jpg",
    "latitude": 55.6259323,
    "longitude": 37.4938342,
    "name_en": "Tyoply Stan",
    "name_ru": "Тёплый Стан",
    "opening_hours": null,
    "osm_id": 618942586,
    "osm_type": "node",
    "phone": null,
    "website": null,
    "wikidata": "Q1963160",
    "wikipedia": "ru:Тёплый Стан (район Москвы)"
  },
  {
    "category": "railway",
    "image": "https://commons.wikimedia.org/w/thumb.php?width=500&f=Mitino station (Moscow Metro) 1.jpg",
    "latitude": 55.8457543,
    "longitude": 37.3622259,
    "name_en": "Mitino",
    "name_ru": "Митино",
    "opening_hours": null,
    "osm_id": 596129560,
    "osm_type": "node",
    "phone": null,
    "website": null,
    "wikidata": "Q2346375",
    "wikipedia": "ru:Митино (станция метро)"
  },
  {
    "category": "theatre",
    "image": null,
    "latitude": 55.8348422,
    "longitude": 37.6612719,
    "name_en": null,
    "name_ru": "Московский детский камерный театр кукол",
    "opening_hours": null,
    "osm_id": 612045717,
    "osm_type": "node",
    "phone": null,
    "website": null,
    "wikidata": "Q4304121",
    "wikipedia": "ru:Московский детский камерный театр кукол"
  },
  {
    "category": "monument",
    "image": "https://commons.wikimedia.org/w/thumb.php?width=500&f=Moskva Marsal Zukov1a.jpg",
    "latitude": 55.7558556,
    "longitude": 37.6168327,
    "name_en": "Georgy Zhukov",
    "name_ru": "Г. К. Жукову",
    "opening_hours": null,
    "osm_id": 660203683,
    "osm_type": "node",
    "phone": null,
    "website": null,
    "wikidata": "Q4343526",
    "wikipedia": "ru:Памятник маршалу Жукову (Москва)"
  },
  {
    "category": "area",
    "image": "https://commons.wikimedia.org/w/thumb.php?width=500&f=Novo peredelkino from air 2007.jpg",
    "latitude": 55.6461043,
    "longitude": 37.352684,
    "name_en": null,
    "name_ru": "Ново-Переделкино",
    "opening_hours": null,
    "osm_id": 618942585,
    "osm_type": "node",
    "phone": null,
    "website": null,
    "wikidata": "Q2364381",
    "wikipedia": "ru:Ново-Переделкино"
  },
  {
    "category": "monument",
    "image": null,
    "latitude": 55.7701483,
    "longitude": 37.5828266,
    "name_en": null,
    "name_ru": "Дружбе народов России и Грузии",
    "opening_hours": null,
    "osm_id": 664908423,
    "osm_type": "node",
    "phone": null,
    "website": null,
    "wikidata": "Q21026861",
    "wikipedia": "ru:Дружба навеки (монумент)"
  },
  {
    "category": "monument",
    "image": "https://commons.wikimedia.org/w/thumb.php?width=500&f=Москва, Армянский переулок, 2, обелиск.jpg",
    "latitude": 55.760389,
    "longitude": 37.6350554,
    "name_en": "Lazarevs Obelisk",
    "name_ru": "Лазаревым",
    "opening_hours": null,
    "osm_id": 638344994,
    "osm_type": "node",
    "phone": null,
    "website": null,
    "wikidata": "Q16684470",
    "wikipedia": "ru:Памятник Лазаревым (Москва)"
  },
  {
    "category": "theatre",
    "image": null,
    "latitude": 55.7725971,
    "longitude": 37.6783612,
    "name_en": null,
    "name_ru": "Московский детский театр эстрады",
    "opening_hours": "Mo-Su 11:00-19:00",
    "osm_id": 628823465,
    "osm_type": "node",
    "phone": "+7 495 6321622",
    "website": null,
    "wikidata": "Q4304122",
    "wikipedia": "ru:Московский детский театр эстрады"
  },
  {
    "category": "theatre",
    "image": "https://commons.wikimedia.org/w/thumb.php?width=500&f=Moscow Teatr Modern 20150913 0025 stitch.jpg",
    "latitude": 55.776615,
    "longitude": 37.6824766,
    "name_en": null,
    "name_ru": "Модерн",
    "opening_hours": "Mo-Su 11:00-20:00",
    "osm_id": 628825358,
    "osm_type": "node",
    "phone": "+7 499 6322867",
    "website": "http://www.modern-theatre.ru/",
    "wikidata": "Q4299382",
    "wikipedia": "ru:Модерн (театр)"
  },
  {
    "category": "museum",
    "image": "https://commons.wikimedia.org/w/thumb.php?width=500&f=Moscow paleontologia.JPG",
    "latitude": 55.6239794,
    "longitude": 37.5139616,
    "name_en": "Moscow Paleontological Museum",
    "name_ru": "Палеонтологический музей",
    "opening_hours": "We-Su 10:00-18:00; Mo,Tu off",
    "osm_id": 668036470,
    "osm_type": "node",
    "phone": "+7 495 3394544;+7 495 3391500",
    "website": "http://www.paleo.ru/museum/",
    "wikidata": "Q1327180",
    "wikipedia": "ru:Палеонтологический музей имени Ю. А. Орлова"
  },
  {
    "category": "railway",
    "image": "https://commons.wikimedia.org/w/thumb.php?width=500&f=SretenBulvar colorfix.jpg",
    "latitude": 55.7669421,
    "longitude": 37.6400984,
    "name_en": "Sretensky Bulvar",
    "name_ru": "Сретенский бульвар",
    "opening_hours": null,
    "osm_id": 666528523,
    "osm_type": "node",
    "phone": null,
    "website": null,
    "wikidata": "Q2721394",
    "wikipedia": "ru:Сретенский бульвар (станция метро)"
  },
  {
    "category": "area",
    "image": "https://commons.wikimedia.org/w/thumb.php?width=500&f=Pokrovskoye-Streshnevo District, Moscow, Russia - panoramio (53).jpg",
    "latitude": 55.8127392,
    "longitude": 37.4622685,
    "name_en": "Pokrovskoye-Streshnevo",
    "name_ru": "Покровское-Стрешнево",
    "opening_hours": null,
    "osm_id": 694131583,
    "osm_type": "node",
    "phone": null,
    "website": null,
    "wikidata": "Q2367649",
    "wikipedia": "ru:Покровское-Стрешнево (район Москвы)"
  },
  {
    "category": "railway",
    "image": "https://commons.wikimedia.org/w/thumb.php?width=500&f=Станция Подмосковная Stantsiya podmoskovnaya.jpg",
    "latitude": 55.8145299,
    "longitude": 37.5269566,
    "name_en": null,
    "name_ru": "Подмосковная",
    "opening_hours": null,
    "osm_id": 690549778,
    "osm_type": "node",
    "phone": null,
    "website": null,
    "wikidata": "Q4367887",
    "wikipedia": "ru:Подмосковная (станция)"
  },
  {
    "category": "government_agency",
    "image": "https://commons.wikimedia.org/w/thumb.php?width=500&f=Ambassade d'Algérie à Mosco.JPG",
    "latitude": 55.7669296,
    "longitude": 37.6164169,
    "name_en": "embassy of Algeria",
    "name_ru": "Посольство Алжира",
    "opening_hours": null,
    "osm_id": 698892150,
    "osm_type": "node",
    "phone": "+7 495.937 4600",
    "website": null,
    "wikidata": "Q2841581",
    "wikipedia": "fr:Ambassade d'Algérie en Russie"
  },
  {
    "category": "government_agency",
    "image": "https://commons.wikimedia.org/w/thumb.php?width=500&f=Embassy of Sudan in Moscow.JPG",
    "latitude": 55.769001,
    "longitude": 37.6067085,
    "name_en": "Sudan Embassy",
    "name_ru": "Посольство Судана",
    "opening_hours": null,
    "osm_id": 698892145,
    "osm_type": "node",
    "phone": "+7 495 699-54-61",
    "website": null,
    "wikidata": "Q4374056",
    "wikipedia": "ru:Посольство Судана в России"
  },
  {
    "category": "government_agency",
    "image": "https://commons.wikimedia.org/w/thumb.php?width=500&f=Moscow, 2nd Troitsky Lane 3,6 and 4 - Embassy of Venezuela (30669425973).jpg",
    "latitude": 55.7754321,
    "longitude": 37.622791,
    "name_en": "Embassy of Venezuela",
    "name_ru": "посольство Венесуэлы",
    "opening_hours": null,
    "osm_id": 698892153,
    "osm_type": "node",
    "phone": "+7 495 9566105",
    "website": "http://rusia.embajada.gob.ve",
    "wikidata": "Q4373980",
    "wikipedia": "ru:Посольство Венесуэлы в России"
  },
  {
    "category": "government_agency",
    "image": "https://commons.wikimedia.org/w/thumb.php?width=500&f=Moscow, Maroseika 17.jpg",
    "latitude": 55.7582251,
    "longitude": 37.6380818,
    "name_en": "Embassy of Belarus",
    "name_ru": "Посольство Беларуси",
    "opening_hours": null,
    "osm_id": 698892155,
    "osm_type": "node",
    "phone": "+7 495 7776644",
    "website": null,
    "wikidata": "Q3918724",
    "wikipedia": "ru:Посольство Белоруссии в России"
  },
  {
    "category": "government_agency",
    "image": "https://commons.wikimedia.org/w/thumb.php?width=500&f=Moscow, embassy of Armenia (2).jpg",
    "latitude": 55.7605941,
    "longitude": 37.6347965,
    "name_en": "Armenian Embassy",
    "name_ru": "Посольство Армении",
    "opening_hours": null,
    "osm_id": 698892160,
    "osm_type": "node",
    "phone": null,
    "website": null,
    "wikidata": "Q4373965",
    "wikipedia": "ru:Посольство Армении в России"
  },
  {
    "category": "railway",
    "image": "https://commons.wikimedia.org/w/thumb.php?width=500&f=Maryina Roshcha Metro 02.jpg",
    "latitude": 55.7955156,
    "longitude": 37.616309,
    "name_en": "Maryina Roshcha",
    "name_ru": "Марьина Роща",
    "opening_hours": null,
    "osm_id": 773136965,
    "osm_type": "node",
    "phone": null,
    "website": null,
    "wikidata": "Q2427833",
    "wikipedia": "ru:Марьина роща (станция метро)"
  },
  {
    "category": "government_agency",
    "image": "https://commons.wikimedia.org/w/thumb.php?width=500&f=Embassy of Israel in Moscow, building.jpg",
    "latitude": 55.7337798,
    "longitude": 37.6236567,
    "name_en": "Embassy of Israel",
    "name_ru": "Посольство Израиля",
    "opening_hours": null,
    "osm_id": 699049191,
    "osm_type": "node",
    "phone": "+7 (495)660 27 00",
    "website": "https://embassies.gov.il/moscow/Pages/default.aspx",
    "wikidata": "Q2894508",
    "wikipedia": "ru:Посольство Израиля в России"
  },
  {
    "category": "railway",
    "image": "https://commons.wikimedia.org/w/thumb.php?width=500&f=Metro MSK Line10 Dostoevskaya.jpg",
    "latitude": 55.781451,
    "longitude": 37.615071,
    "name_en": "Dostoyevskaya",
    "name_ru": "Достоевская",
    "opening_hours": null,
    "osm_id": 773136972,
    "osm_type": "node",
    "phone": null,
    "website": null,
    "wikidata": "Q1251110",
    "wikipedia": "ru:Достоевская (станция метро, Москва)"
  },
  {
    "category": "street",
    "image": null,
    "latitude": 55.8319712,
    "longitude": 37.6589201,
    "name_en": null,
    "name_ru": "Ростокинский дворник",
    "opening_hours": null,
    "osm_id": 773364602,
    "osm_type": "node",
    "phone": null,
    "website": null,
    "wikidata": "Q21026887",
    "wikipedia": "ru:Ростокинский дворник"
  },
  {
    "category": "monument",
    "image": "https://commons.wikimedia.org/w/thumb.php?width=500&f=Tverskoy District, Moscow, Russia - panoramio (622).jpg",
    "latitude": 55.7583717,
    "longitude": 37.6195803,
    "name_en": "Karl Marx",
    "name_ru": "Карлу Марксу",
    "opening_hours": null,
    "osm_id": 784052411,
    "osm_type": "node",
    "phone": null,
    "website": null,
    "wikidata": "Q4343193",
    "wikipedia": "ru:Памятник Карлу Марксу (Москва)"
  },
  {
    "category": "government_agency",
    "image": "https://commons.wikimedia.org/w/thumb.php?width=500&f=Embassy of Chile in Moscow, building.jpg",
    "latitude": 55.7437458,
    "longitude": 37.5874667,
    "name_en": "Embassy of Chile",
    "name_ru": "посольство Чили",
    "opening_hours": null,
    "osm_id": 846812374,
    "osm_type": "node",
    "phone": null,
    "website": null,
    "wikidata": "Q4374084",
    "wikipedia": "ru:Посольство Чили в России"
  },
  {
    "category": "monument",
    "image": "https://commons.wikimedia.org/w/thumb.php?width=500&f=Памятник Ф.Энгельсу, м.Кропоткинская. Moscow, Russia - panoramio.jpg",
    "latitude": 55.7441841,
    "longitude": 37.6011799,
    "name_en": "Friedrich Engels",
    "name_ru": "Фридрих Энгельс",
    "opening_hours": null,
    "osm_id": 916076746,
    "osm_type": "node",
    "phone": null,
    "website": null,
    "wikidata": "Q53953908",
    "wikipedia": "ru:Памятник Фридриху Энгельсу (Москва)"
  },
  {
    "category": "government_agency",
    "image": "https://commons.wikimedia.org/w/thumb.php?width=500&f=Prechistenskaya nab 23 (Kursovoy 9).JPG",
    "latitude": 55.7414377,
    "longitude": 37.6063195,
    "name_en": "Embassy of South Ossetia",
    "name_ru": "Посольство Южной Осетии",
    "opening_hours": null,
    "osm_id": 838569813,
    "osm_type": "node",
    "phone": "+7 495 644-27-57",
    "website": null,
    "wikidata": "Q4374094",
    "wikipedia": "ru:Посольство Южной Осетии в России"
  },
  {
    "category": "theatre",
    "image": "https://commons.wikimedia.org/w/thumb.php?width=500&f=Кинотеатр Иллюзион в доме на Котельнической набережной в Москве.jpg",
    "latitude": 55.7479938,
    "longitude": 37.6450217,
    "name_en": null,
    "name_ru": "Иллюзион",
    "opening_hours": null,
    "osm_id": 781048859,
    "osm_type": "node",
    "phone": null,
    "website": null,
    "wikidata": "Q4199358",
    "wikipedia": "ru:Иллюзион (кинотеатр, Москва)"
  },
  {
    "category": "monument",
    "image": "https://commons.wikimedia.org/w/thumb.php?width=500&f=Памятник Ивану Федорову в Москве.JPG",
    "latitude": 55.7589978,
    "longitude": 37.6235051,
    "name_en": "Ivan Fyodorov",
    "name_ru": "Ивану Фёдорову",
    "opening_hours": null,
    "osm_id": 916076835,
    "osm_type": "node",
    "phone": null,
    "website": null,
    "wikidata": "Q4343556",
    "wikipedia": "ru:Памятник первопечатнику Ивану Фёдорову (Москва)"
  },
  {
    "category": "theatre",
    "image": "https://commons.wikimedia.org/w/thumb.php?width=500&f=Рабочий клуб текстильщиков 2.jpg",
    "latitude": 55.8369961,
    "longitude": 37.6416825,
    "name_en": null,
    "name_ru": "Постскриптум",
    "opening_hours": null,
    "osm_id": 887939238,
    "osm_type": "node",
    "phone": null,
    "website": null,
    "wikidata": "Q28666929",
    "wikipedia": "ru:Театр-студия Постскриптум"
  },
  {
    "category": "theatre",
    "image": "https://commons.wikimedia.org/w/thumb.php?width=500&f=Moscow Armen Djigarkhanjan Dramatic Theatre, 2009.JPG",
    "latitude": 55.6898118,
    "longitude": 37.5406814,
    "name_en": null,
    "name_ru": "Театр Армена Джигарханяна",
    "opening_hours": "Mo-Fr 19:00-23:00; Sa-Su 12:00-23:00",
    "osm_id": 954912021,
    "osm_type": "node",
    "phone": "+7 495 9300347",
    "website": null,
    "wikidata": "Q4304135",
    "wikipedia": "ru:Московский драматический театр под руководством Армена Джигарханяна"
  },
  {
    "category": "theatre",
    "image": null,
    "latitude": 55.7364462,
    "longitude": 37.594084,
    "name_en": "Praktika",
    "name_ru": "Практика",
    "opening_hours": "Mo-Su 09:00-24:00",
    "osm_id": 956231545,
    "osm_type": "node",
    "phone": "+7 495 2585565",
    "website": "http://www.praktikatheatre.ru",
    "wikidata": "Q4376411",
    "wikipedia": "ru:Практика (театр)"
  },
  {
    "category": "government_agency",
    "image": "https://commons.wikimedia.org/w/thumb.php?width=500&f=Embassy of Uzbekistan in Moscow, building.jpg",
    "latitude": 55.7326469,
    "longitude": 37.6212885,
    "name_en": "Embassy of Uzbekistan",
    "name_ru": "посольство Узбекистана",
    "opening_hours": null,
    "osm_id": 699049187,
    "osm_type": "node",
    "phone": "+7-499 230-00-76",
    "website": null,
    "wikidata": "Q4374066",
    "wikipedia": "ru:Посольство Узбекистана в России"
  },
  {
    "category": "religious",
    "image": "https://commons.wikimedia.org/w/thumb.php?width=500&f=Moscow Bogoyavlensky asv2021-07 img3.jpg",
    "latitude": 55.755722,
    "longitude": 37.6232681,
    "name_en": "Monastery of the Epiphany",
    "name_ru": "Богоявленский монастырь",
    "opening_hours": null,
    "osm_id": 928056489,
    "osm_type": "node",
    "phone": null,
    "website": null,
    "wikidata": "Q2388033",
    "wikipedia": "ru:Богоявленский монастырь (Москва)"
  },
  {
    "category": "theatre",
    "image": "https://commons.wikimedia.org/w/thumb.php?width=500&f=Moscow Romen Theatre 03-2016 photo1.jpg",
    "latitude": 55.784464,
    "longitude": 37.5694957,
    "name_en": "Romen Theatre",
    "name_ru": "Ромэн",
    "opening_hours": "Tu-Su 10:00-23:00",
    "osm_id": 969003900,
    "osm_type": "node",
    "phone": "+7 499 2518522",
    "website": null,
    "wikidata": "Q3527555",
    "wikipedia": "ru:Ромэн"
  },
  {
    "category": "monument",
    "image": null,
    "latitude": 55.7147428,
    "longitude": 37.5575805,
    "name_en": null,
    "name_ru": "Альпинисты",
    "opening_hours": null,
    "osm_id": 986991656,
    "osm_type": "node",
    "phone": null,
    "website": null,
    "wikidata": "Q4343432",
    "wikipedia": "ru:Памятник альпинистам"
  },
  {
    "category": "religious",
    "image": "https://commons.wikimedia.org/w/thumb.php?width=500&f=Church of the Theotokos of the Sign (Znamensky Monastery) 11.jpg",
    "latitude": 55.7527241,
    "longitude": 37.6289723,
    "name_en": null,
    "name_ru": "Знаменский монастырь",
    "opening_hours": null,
    "osm_id": 983180221,
    "osm_type": "node",
    "phone": null,
    "website": null,
    "wikidata": "Q2679932",
    "wikipedia": "ru:Знаменский монастырь (Москва)"
  },
  {
    "category": "monument",
    "image": "https://commons.wikimedia.org/w/thumb.php?width=500&f=Памятник Пирогову на Б.Пироговская ул., Moscow, Russia. - panoramio.jpg",
    "latitude": 55.732281,
    "longitude": 37.571699,
    "name_en": null,
    "name_ru": "Н. И. Пирогову",
    "opening_hours": null,
    "osm_id": 989307583,
    "osm_type": "node",
    "phone": null,
    "website": null,
    "wikidata": "Q4343313",
    "wikipedia": "ru:Памятник Пирогову (Москва)"
  },
  {
    "category": "education",
    "image": "https://commons.wikimedia.org/w/thumb.php?width=500&f=Zal redkoy knigi RGBM.jpg",
    "latitude": 55.7959037,
    "longitude": 37.7181847,
    "name_en": "Russian State Library for Young Adults",
    "name_ru": "Российская государственная библиотека для молодежи",
    "opening_hours": "Mo-Sa 11:00-22:00; Su 12:00-22:00",
    "osm_id": 994054746,
    "osm_type": "node",
    "phone": "+7 499 9226677",
    "website": null,
    "wikidata": "Q16692627",
    "wikipedia": "ru:Российская государственная библиотека для молодёжи"
  },
  {
    "category": "monument",
    "image": null,
    "latitude": 55.7541957,
    "longitude": 37.6113254,
    "name_en": "Mikhail Lomonosov",
    "name_ru": "М. В. Ломоносову",
    "opening_hours": null,
    "osm_id": 916076660,
    "osm_type": "node",
    "phone": null,
    "website": null,
    "wikidata": "Q18275427",
    "wikipedia": "ru:Памятник Ломоносову (Москва, Моховая улица)"
  },
  {
    "category": "monument",
    "image": null,
    "latitude": 55.7176464,
    "longitude": 37.5535288,
    "name_en": null,
    "name_ru": "Погибшим на стадионах мира",
    "opening_hours": null,
    "osm_id": 986991636,
    "osm_type": "node",
    "phone": null,
    "website": null,
    "wikidata": "Q4343559",
    "wikipedia": "ru:Памятник погибшим 20 октября 1982 года в «Лужниках»"
  },
  {
    "category": "area",
    "image": "https://commons.wikimedia.org/w/thumb.php?width=500&f=Goliyanovo, Moscow - 501.jpg",
    "latitude": 55.8184501,
    "longitude": 37.8072685,
    "name_en": "Golyanovo",
    "name_ru": "Гольяново",
    "opening_hours": null,
    "osm_id": 996108927,
    "osm_type": "node",
    "phone": null,
    "website": null,
    "wikidata": "Q2365753",
    "wikipedia": "ru:Гольяново (район Москвы)"
  },
  {
    "category": "monument",
    "image": "https://commons.wikimedia.org/w/thumb.php?width=500&f=Гостиница \"Космос\" м.ВДНХ, Москва, Россия. - panoramio - Oleg Yu.Novikov (1).jpg",
    "latitude": 55.822758,
    "longitude": 37.6455072,
    "name_en": "Charles de Gaulle",
    "name_ru": "Шарль де Голль",
    "opening_hours": null,
    "osm_id": 1019315274,
    "osm_type": "node",
    "phone": null,
    "website": null,
    "wikidata": "Q16270971",
    "wikipedia": "ru:Памятник де Голлю (Москва)"
  },
  {
    "category": "railway",
    "image": "https://commons.wikimedia.org/w/thumb.php?width=500&f=MCC Vladykino.jpg",
    "latitude": 55.847279,
    "longitude": 37.5962705,
    "name_en": null,
    "name_ru": "Владыкино-Московское",
    "opening_hours": null,
    "osm_id": 1062474614,
    "osm_type": "node",
    "phone": null,
    "website": null,
    "wikidata": "Q4113375",
    "wikipedia": "ru:Владыкино-Московское (станция)"
  },
  {
    "category": "railway",
    "image": "https://commons.wikimedia.org/w/thumb.php?width=500&f=Lefortovo station 20131012 098 ShiftN.jpg",
    "latitude": 55.7627946,
    "longitude": 37.7460652,
    "name_en": null,
    "name_ru": "Лефортово",
    "opening_hours": null,
    "osm_id": 1062135937,
    "osm_type": "node",
    "phone": null,
    "website": null,
    "wikidata": "Q4260379",
    "wikipedia": "ru:Лефортово (станция)"
  },
  {
    "category": "railway",
    "image": "https://commons.wikimedia.org/w/thumb.php?width=500&f=Serebrany Bor station.JPG",
    "latitude": 55.8031708,
    "longitude": 37.4954545,
    "name_en": null,
    "name_ru": "Серебряный Бор",
    "opening_hours": null,
    "osm_id": 1062487275,
    "osm_type": "node",
    "phone": null,
    "website": null,
    "wikidata": "Q4417429",
    "wikipedia": "ru:Серебряный Бор (станция)"
  },
  {
    "category": "monument",
    "image": "https://commons.wikimedia.org/w/thumb.php?width=500&f=0340 - Moskau 2015 (26399133935).jpg",
    "latitude": 55.7528014,
    "longitude": 37.6226239,
    "name_en": "Monument to Minin and Pozharsky",
    "name_ru": "Минину и Пожарскому",
    "opening_hours": null,
    "osm_id": 995935368,
    "osm_type": "node",
    "phone": null,
    "website": null,
    "wikidata": "Q187531",
    "wikipedia": "ru:Памятник Минину и Пожарскому"
  },
  {
    "category": "monument",
    "image": null,
    "latitude": 55.7560115,
    "longitude": 37.6235587,
    "name_en": null,
    "name_ru": "Иоанникию и Софронию Лихудам",
    "opening_hours": null,
    "osm_id": 1027322846,
    "osm_type": "node",
    "phone": null,
    "website": null,
    "wikidata": "Q17518343",
    "wikipedia": "ru:Братья Лихуды"
  },
  {
    "category": "monument",
    "image": "https://commons.wikimedia.org/w/thumb.php?width=500&f=Памятник Репину (2).JPG",
    "latitude": 55.7449134,
    "longitude": 37.6178602,
    "name_en": "Monument to Ilya Repin",
    "name_ru": "И. Е. Репину",
    "opening_hours": null,
    "osm_id": 1070716586,
    "osm_type": "node",
    "phone": null,
    "website": null,
    "wikidata": "Q18510163",
    "wikipedia": "ru:Памятник Репину (Москва)"
  },
  {
    "category": "monument",
    "image": "https://commons.wikimedia.org/w/thumb.php?width=500&f=Loubianka square memorial.jpg",
    "latitude": 55.7591305,
    "longitude": 37.6276092,
    "name_en": "Solovetsky Stone",
    "name_ru": "Соловецкий камень",
    "opening_hours": null,
    "osm_id": 1096224117,
    "osm_type": "node",
    "phone": null,
    "website": null,
    "wikidata": "Q4427945",
    "wikipedia": "ru:Соловецкий камень"
  },
  {
    "category": "attraction",
    "image": "https://commons.wikimedia.org/w/thumb.php?width=500&f=Children Are the Victims of Adult Vices.jpg",
    "latitude": 55.7459336,
    "longitude": 37.6194245,
    "name_en": "The Children — Victims Of Adult Vices",
    "name_ru": "Дети — жертвы пороков взрослых",
    "opening_hours": null,
    "osm_id": 1081354475,
    "osm_type": "node",
    "phone": null,
    "website": null,
    "wikidata": "Q4159375",
    "wikipedia": "ru:Дети — жертвы пороков взрослых"
  },
  {
    "category": "theatre",
    "image": null,
    "latitude": 55.79766,
    "longitude": 37.797056,
    "name_en": null,
    "name_ru": "Театр Мимики и Жеста",
    "opening_hours": null,
    "osm_id": 1099569153,
    "osm_type": "node",
    "phone": "+7 495 4654122",
    "website": null,
    "wikidata": "Q4453482",
    "wikipedia": "ru:Театр мимики и жеста"
  },
  {
    "category": "area",
    "image": null,
    "latitude": 55.8357546,
    "longitude": 37.6574417,
    "name_en": "Rostokino",
    "name_ru": "Ростокино",
    "opening_hours": null,
    "osm_id": 958696717,
    "osm_type": "node",
    "phone": null,
    "website": null,
    "wikidata": "Q4398547",
    "wikipedia": "ru:Ростокино (Москва)"
  },
  {
    "category": "area",
    "image": null,
    "latitude": 55.8257331,
    "longitude": 37.6111324,
    "name_en": "Ostankino",
    "name_ru": "Останкино",
    "opening_hours": null,
    "osm_id": 1067307733,
    "osm_type": "node",
    "phone": null,
    "website": null,
    "wikidata": "Q21643653",
    "wikipedia": "ru:Останкино (Москва)"
  },
  {
    "category": "theatre",
    "image": "https://commons.wikimedia.org/w/thumb.php?width=500&f=Moscow Pokrovsky-opera 2011.jpg",
    "latitude": 55.7580473,
    "longitude": 37.6235011,
    "name_en": null,
    "name_ru": "Большой театр. Камерная сцена им. Б. А. Покровского",
    "opening_hours": "Tu-Fr 19:00-22:00; Sa-Su 18:00-22:00",
    "osm_id": 1123362163,
    "osm_type": "node",
    "phone": "+7 495 6067008",
    "website": "http://www.opera-pokrovsky.ru/",
    "wikidata": "Q4211516",
    "wikipedia": "ru:Камерный музыкальный театр имени Б. А. Покровского"
  },
  {
    "category": "museum",
    "image": "https://commons.wikimedia.org/w/thumb.php?width=500&f=Mayakovsky(4).jpg",
    "latitude": 55.759489,
    "longitude": 37.6294805,
    "name_en": "Museum of Vladimir Mayakovsky",
    "name_ru": "Музей В.В. Маяковского",
    "opening_hours": null,
    "osm_id": 1106845052,
    "osm_type": "node",
    "phone": "+7 495 6219075",
    "website": "http://mayakovsky.museum",
    "wikidata": "Q4146875",
    "wikipedia": "ru:Государственный музей В. В. Маяковского"
  },
  {
    "category": "railway",
    "image": "https://commons.wikimedia.org/w/thumb.php?width=500&f=Moscow Metro KurskayaKL asv2018-09.jpg",
    "latitude": 55.7571978,
    "longitude": 37.6593319,
    "name_en": "Kurskaya",
    "name_ru": "Курская",
    "opening_hours": null,
    "osm_id": 1123660474,
    "osm_type": "node",
    "phone": null,
    "website": null,
    "wikidata": "Q432042",
    "wikipedia": "ru:Курская (станция метро, Кольцевая линия)"
  },
  {
    "category": "theatre",
    "image": "https://commons.wikimedia.org/w/thumb.php?width=500&f=Moskovskij gosudarstvennyj istoriko-etnograficheskij teatr (left).jpg",
    "latitude": 55.8638153,
    "longitude": 37.6810376,
    "name_en": null,
    "name_ru": "Московский государственный историко-этнографический театр",
    "opening_hours": null,
    "osm_id": 1108372752,
    "osm_type": "node",
    "phone": "+7 499 1841711",
    "website": "http://etnoteatr.ru/",
    "wikidata": "Q4304079",
    "wikipedia": "ru:Московский государственный историко-этнографический театр"
  },
  {
    "category": "attraction",
    "image": "https://commons.wikimedia.org/w/thumb.php?width=500&f=Moscow Myasnitskaya 8.JPG",
    "latitude": 55.7599237,
    "longitude": 37.6302585,
    "name_en": null,
    "name_ru": "Библио-Глобус",
    "opening_hours": "Mo-Fr 09:00-21:00; Sa,Su 10:00-21:00",
    "osm_id": 1106845050,
    "osm_type": "node",
    "phone": null,
    "website": null,
    "wikidata": "Q4086274",
    "wikipedia": "ru:Библио-Глобус"
  },
  {
    "category": "area",
    "image": null,
    "latitude": 55.7164559,
    "longitude": 37.8590219,
    "name_en": "Kosino",
    "name_ru": "Косино",
    "opening_hours": null,
    "osm_id": 1128048216,
    "osm_type": "node",
    "phone": null,
    "website": null,
    "wikidata": "Q4234881",
    "wikipedia": "ru:Косино (Москва)"
  },
  {
    "category": "area",
    "image": null,
    "latitude": 55.6736672,
    "longitude": 37.699926,
    "name_en": null,
    "name_ru": "посёлок Шлюзы",
    "opening_hours": null,
    "osm_id": 1133363131,
    "osm_type": "node",
    "phone": null,
    "website": null,
    "wikidata": "Q24935794",
    "wikipedia": "ru:Посёлок Шлюзы"
  },
  {
    "category": "monument",
    "image": null,
    "latitude": 55.7594686,
    "longitude": 37.6082184,
    "name_en": null,
    "name_ru": "А.И. Хачатуряну",
    "opening_hours": null,
    "osm_id": 1145283024,
    "osm_type": "node",
    "phone": null,
    "website": null,
    "wikidata": "Q21645087",
    "wikipedia": "ru:Памятник Хачатуряну (Москва)"
  },
  {
    "category": "monument",
    "image": null,
    "latitude": 55.7595927,
    "longitude": 37.6130687,
    "name_en": null,
    "name_ru": "А. П. Чехову",
    "opening_hours": null,
    "osm_id": 1161887274,
    "osm_type": "node",
    "phone": null,
    "website": null,
    "wikidata": "Q4343022",
    "wikipedia": "ru:Памятник А. П. Чехову (Москва)"
  },
  {
    "category": "theatre",
    "image": "https://commons.wikimedia.org/w/thumb.php?width=500&f=Центральный театр кукол - panoramio.jpg",
    "latitude": 55.7740101,
    "longitude": 37.6144647,
    "name_en": "Moscow State Puppet Theatre",
    "name_ru": "Театр кукол имени С. В. Образцова",
    "opening_hours": "Mo-Su 10:00-18:00",
    "osm_id": 1196600438,
    "osm_type": "node",
    "phone": "+7 495 6995979",
    "website": "http://www.puppet.ru/",
    "wikidata": "Q1055819",
    "wikipedia": "ru:Театр кукол имени С. В. Образцова"
  },
  {
    "category": "railway",
    "image": "https://commons.wikimedia.org/w/thumb.php?width=500&f=MCC 01-2017 img01 Ugreshskaya station.jpg",
    "latitude": 55.7185406,
    "longitude": 37.6976202,
    "name_en": "Ugreshskaya",
    "name_ru": "Угрешская",
    "opening_hours": null,
    "osm_id": 1157754373,
    "osm_type": "node",
    "phone": null,
    "website": null,
    "wikidata": "Q23673589",
    "wikipedia": "ru:Угрешская (платформа)"
  },
  {
    "category": "railway",
    "image": "https://commons.wikimedia.org/w/thumb.php?width=500&f=Streshnevo platform with arriving ES2G train.jpg",
    "latitude": 55.8136972,
    "longitude": 37.4869307,
    "name_en": "Streshnevo",
    "name_ru": "Стрешнево",
    "opening_hours": null,
    "osm_id": 1241651089,
    "osm_type": "node",
    "phone": null,
    "website": null,
    "wikidata": "Q21195520",
    "wikipedia": "ru:Стрешнево (станция МЦК)"
  },
  {
    "category": "attraction",
    "image": "https://commons.wikimedia.org/w/thumb.php?width=500&f=Moscow Izmailovo hotel complex evening (14575121847).jpg",
    "latitude": 55.7921049,
    "longitude": 37.7488415,
    "name_en": null,
    "name_ru": "Дельта",
    "opening_hours": null,
    "osm_id": 1251100777,
    "osm_type": "node",
    "phone": null,
    "website": null,
    "wikidata": "Q4198637",
    "wikipedia": "ru:Измайлово (гостиничный комплекс)"
  },
  {
    "category": "area",
    "image": "https://commons.wikimedia.org/w/thumb.php?width=500&f=Sokol Settlement 03-2011 04.jpg",
    "latitude": 55.8032086,
    "longitude": 37.5024756,
    "name_en": null,
    "name_ru": "посёлок Сокол",
    "opening_hours": null,
    "osm_id": 1274540186,
    "osm_type": "node",
    "phone": null,
    "website": null,
    "wikidata": "Q4426988",
    "wikipedia": "ru:Сокол (посёлок в Москве)"
  },
  {
    "category": "monument",
    "image": "https://commons.wikimedia.org/w/thumb.php?width=500&f=Moscow, Kutuzovsky Prospect, park near school 1232 (30698665443).jpg",
    "latitude": 55.7424335,
    "longitude": 37.5397178,
    "name_en": null,
    "name_ru": "Янке Купале",
    "opening_hours": null,
    "osm_id": 1251707271,
    "osm_type": "node",
    "phone": null,
    "website": null,
    "wikidata": "Q17476585",
    "wikipedia": "ru:Памятник Янке Купале (Москва)"
  },
  {
    "category": "monument",
    "image": "https://commons.wikimedia.org/w/thumb.php?width=500&f=КРЫЛОВ поближе - panoramio.jpg",
    "latitude": 55.7645367,
    "longitude": 37.5914052,
    "name_en": null,
    "name_ru": "И. А. Крылову",
    "opening_hours": null,
    "osm_id": 1334562944,
    "osm_type": "node",
    "phone": null,
    "website": null,
    "wikidata": "Q16271009",
    "wikipedia": "ru:Памятник И. А. Крылову (Москва)"
  },
  {
    "category": "street",
    "image": "https://commons.wikimedia.org/w/thumb.php?width=500&f=Moscow Planetarium 01-2016.jpg",
    "latitude": 55.7614474,
    "longitude": 37.5836608,
    "name_en": "Moscow Planetarium",
    "name_ru": "Московский Планетарий",
    "opening_hours": "We-Mo 10:00-21:00",
    "osm_id": 1347158881,
    "osm_type": "node",
    "phone": "+7 495 2217690",
    "website": null,
    "wikidata": "Q4304240",
    "wikipedia": "ru:Московский планетарий"
  },
  {
    "category": "monument",
    "image": "https://commons.wikimedia.org/w/thumb.php?width=500&f=Moscow, Dorogomilovskaya Zastava at night (31177444711).jpg",
    "latitude": 55.7467853,
    "longitude": 37.5554822,
    "name_en": null,
    "name_ru": "Москва — Город-Герой",
    "opening_hours": null,
    "osm_id": 1325967009,
    "osm_type": "node",
    "phone": null,
    "website": null,
    "wikidata": "Q21026873",
    "wikipedia": "ru:Городу-Герою Москве"
  },
  {
    "category": "railway",
    "image": "https://commons.wikimedia.org/w/thumb.php?width=500&f=MCC 25IZMA 6669 PLAT.jpg",
    "latitude": 55.7899783,
    "longitude": 37.7432997,
    "name_en": "Izmaylovo",
    "name_ru": "Измайлово",
    "opening_hours": null,
    "osm_id": 1324648632,
    "osm_type": "node",
    "phone": null,
    "website": null,
    "wikidata": "Q23673568",
    "wikipedia": "ru:Измайлово (станция МЦК)"
  },
  {
    "category": "attraction",
    "image": "https://commons.wikimedia.org/w/thumb.php?width=500&f=Moscow Eliseevsky Shop asv2018-09 img2.jpg",
    "latitude": 55.7640525,
    "longitude": 37.6068998,
    "name_en": "Eliseevsky",
    "name_ru": "Елисеевский",
    "opening_hours": "24/7",
    "osm_id": 1341256420,
    "osm_type": "node",
    "phone": null,
    "website": null,
    "wikidata": "Q20732504",
    "wikipedia": "ru:Елисеевский"
  },
  {
    "category": "monument",
    "image": "https://commons.wikimedia.org/w/thumb.php?width=500&f=Шолохов и лошади на Гоголевском бульваре - panoramio.jpg",
    "latitude": 55.7469368,
    "longitude": 37.5999031,
    "name_en": null,
    "name_ru": "М. А. Шолохову",
    "opening_hours": null,
    "osm_id": 1352865160,
    "osm_type": "node",
    "phone": null,
    "website": null,
    "wikidata": "Q16271018",
    "wikipedia": "ru:Памятник Шолохову (Москва, Гоголевский бульвар)"
  },
  {
    "category": "monument",
    "image": null,
    "latitude": 55.7390942,
    "longitude": 37.616914,
    "name_en": "Monument to Georgi Dimitrov",
    "name_ru": "Георгию Димитрову",
    "opening_hours": null,
    "osm_id": 1359108784,
    "osm_type": "node",
    "phone": null,
    "website": null,
    "wikidata": "Q54478902",
    "wikipedia": "ru:Памятник Георгию Димитрову (Москва)"
  },
  {
    "category": "monument",
    "image": "https://commons.wikimedia.org/w/thumb.php?width=500&f=Gabdulla Tukay monument, Moscow (2019-07-05) 27.jpg",
    "latitude": 55.7372629,
    "longitude": 37.6313247,
    "name_en": null,
    "name_ru": "Габдулле Тукаю",
    "opening_hours": null,
    "osm_id": 1367901767,
    "osm_type": "node",
    "phone": null,
    "website": null,
    "wikidata": "Q16271032",
    "wikipedia": "ru:Памятник Габдулле Тукаю (Москва)"
  },
  {
    "category": "railway",
    "image": "https://commons.wikimedia.org/w/thumb.php?width=500&f=Moscow Kanatchikovo station asv2018-08.jpg",
    "latitude": 55.7017698,
    "longitude": 37.591367,
    "name_en": null,
    "name_ru": "Канатчиково",
    "opening_hours": null,
    "osm_id": 1387795431,
    "osm_type": "node",
    "phone": null,
    "website": null,
    "wikidata": "Q4212209",
    "wikipedia": "ru:Канатчиково (станция)"
  },
  {
    "category": "monument",
    "image": null,
    "latitude": 55.7359732,
    "longitude": 37.6246985,
    "name_en": null,
    "name_ru": "Возрождение",
    "opening_hours": null,
    "osm_id": 1359123449,
    "osm_type": "node",
    "phone": null,
    "website": null,
    "wikidata": "Q21026854",
    "wikipedia": "ru:Возрождение (памятник)"
  },
  {
    "category": "theatre",
    "image": "https://commons.wikimedia.org/w/thumb.php?width=500&f=STI Main Building.JPG",
    "latitude": 55.7454239,
    "longitude": 37.6612505,
    "name_en": "Theatre Art Studio",
    "name_ru": "Студия театрального искусства",
    "opening_hours": "Mo-Su 11:00-22:30",
    "osm_id": 1369881406,
    "osm_type": "node",
    "phone": "+7 495 6467455",
    "website": "http://sti.ru/",
    "wikidata": "Q16702698",
    "wikipedia": "ru:Студия театрального искусства"
  },
  {
    "category": "museum",
    "image": "https://commons.wikimedia.org/w/thumb.php?width=500&f=Dostoevsky museum Moscow.jpg",
    "latitude": 55.7834974,
    "longitude": 37.6103574,
    "name_en": "Apartment Museum of Fyodor Dostoevsky",
    "name_ru": "Музей-квартира Ф.М.Достоевского",
    "opening_hours": "Tu-Su 11:00-18:00; We,Th 14:00-21:00",
    "osm_id": 1396324038,
    "osm_type": "node",
    "phone": "+7 495 6811085",
    "website": null,
    "wikidata": "Q4306050",
    "wikipedia": "ru:Музей-квартира Ф. М. Достоевского (Москва)"
  },
  {
    "category": "railway",
    "image": "https://commons.wikimedia.org/w/thumb.php?width=500&f=Presnya-Tovarnaya station.jpg",
    "latitude": 55.7665972,
    "longitude": 37.5171072,
    "name_en": null,
    "name_ru": "Пресня",
    "opening_hours": null,
    "osm_id": 1405332172,
    "osm_type": "node",
    "phone": null,
    "website": null,
    "wikidata": "Q4377446",
    "wikipedia": "ru:Пресня (станция)"
  },